var PTT_June2017 = {
"type": "FeatureCollection",
"name": "PTT_June2017",
"crs": { "type": "name", "properties": { "name": "urn:ogc:def:crs:EPSG::4269" } },
"features": [
{ "type": "Feature", "properties": { "OBJECTID": 1, "Province": "Newfoundland and Labrador", "City": "St. John's", "Address": "140 Water Street, Suite 802", "Site_Type": "PPT", "Site_Name": "St. John's", "Building": "TD Place", "POSUI": "6010", "Latitude": 47.566105, "Longitude": -52.705167 }, "geometry": { "type": "Point", "coordinates": [ -52.705167, 47.566105, 0.0 ] } },
{ "type": "Feature", "properties": { "OBJECTID": 2, "Province": "New Brunswick", "City": "Fredericton", "Address": "77 Westmorland Street, Suite 430", "Site_Type": "PPT", "Site_Name": "Fredericton", "Building": "Frederick Square", "POSUI": "6009", "Latitude": 45.963645, "Longitude": -66.646075 }, "geometry": { "type": "Point", "coordinates": [ -66.646075, 45.963645, 0.0 ] } },
{ "type": "Feature", "properties": { "OBJECTID": 3, "Province": "Québec", "City": "Gatineau (Hull)", "Address": "200 Promenade du Portage, Commercial Level 2", "Site_Type": "PPT", "Site_Name": "Gatineau", "Building": "Place du Centre", "POSUI": "6030", "Latitude": 45.4269, "Longitude": -75.7145 }, "geometry": { "type": "Point", "coordinates": [ -75.7145, 45.4269, 0.0 ] } },
{ "type": "Feature", "properties": { "OBJECTID": 4, "Province": "Québec", "City": "Laval", "Address": "3 Place Laval, 5th Floor, Suite 500", "Site_Type": "PPT", "Site_Name": "Laval", "Building": "Place Laval", "POSUI": "6029", "Latitude": 45.581046, "Longitude": -73.705742 }, "geometry": { "type": "Point", "coordinates": [ -73.705742, 45.581046, 0.0 ] } },
{ "type": "Feature", "properties": { "OBJECTID": 5, "Province": "Québec", "City": "Montréal", "Address": "200 René-Lévesque Boulevard West, Suite 103, West Tower", "Site_Type": "PPT", "Site_Name": "Montréal", "Building": "Complexe Guy Favreau", "POSUI": "6028", "Latitude": 45.50688, "Longitude": -73.56251 }, "geometry": { "type": "Point", "coordinates": [ -73.56251, 45.50688, 0.0 ] } },
{ "type": "Feature", "properties": { "OBJECTID": 6, "Province": "Québec", "City": "Pointe-Claire", "Address": "6815 Trans-Canada Highway, Suite C-022A", "Site_Type": "PPT", "Site_Name": "Pointe-Claire", "Building": "Fairview Point-Claire Shopping Centre", "POSUI": "6027", "Latitude": 45.463961, "Longitude": -73.831186 }, "geometry": { "type": "Point", "coordinates": [ -73.831186, 45.463961, 0.0 ] } },
{ "type": "Feature", "properties": { "OBJECTID": 7, "Province": "Québec", "City": "Québec", "Address": "2640 Laurier Boulevard, 2nd Floor, Suite 200", "Site_Type": "PPT", "Site_Name": "Québec", "Building": "Place de la Cité, Cominar Tower", "POSUI": "6026", "Latitude": 46.771223, "Longitude": -71.282092 }, "geometry": { "type": "Point", "coordinates": [ -71.282092, 46.771223, 0.0 ] } },
{ "type": "Feature", "properties": { "OBJECTID": 8, "Province": "Québec", "City": "Chicoutimi", "Address": "98 Racine Street East", "Site_Type": "PPT", "Site_Name": "Chicoutimi", "POSUI": "2425", "Latitude": 48.427792, "Longitude": -71.065453 }, "geometry": { "type": "Point", "coordinates": [ -71.065453, 48.427792, 0.0 ] } },
{ "type": "Feature", "properties": { "OBJECTID": 9, "Province": "Québec", "City": "Saint-Laurent", "Address": "2089 Marcel-Laurin Boulevard, Suite 100", "Site_Type": "PPT", "Site_Name": "Saint-Laurent", "POSUI": "6025", "Latitude": 45.519279, "Longitude": -73.701402 }, "geometry": { "type": "Point", "coordinates": [ -73.701402, 45.519279, 0.0 ] } },
{ "type": "Feature", "properties": { "OBJECTID": 10, "Province": "Manitoba", "City": "Winnipeg", "Address": "433 Main Street, Suite 400", "Site_Type": "PPT", "Site_Name": "Winnipeg", "POSUI": "6008", "Latitude": 49.897723, "Longitude": -97.13863 }, "geometry": { "type": "Point", "coordinates": [ -97.13863, 49.897723, 0.0 ] } },
{ "type": "Feature", "properties": { "OBJECTID": 11, "Province": "Saskatchewan", "City": "Regina", "Address": "1870 Albert Street, Suite 500", "Site_Type": "PPT", "Site_Name": "Regina", "POSUI": "6033", "Latitude": 50.448983, "Longitude": -104.618425 }, "geometry": { "type": "Point", "coordinates": [ -104.618425, 50.448983, 0.0 ] } },
{ "type": "Feature", "properties": { "OBJECTID": 12, "Province": "Saskatchewan", "City": "Saskatoon", "Address": "101-22nd Street East, Suite 405", "Site_Type": "PPT", "Site_Name": "Saskatoon", "Building": "Federal Building", "POSUI": "6032", "Latitude": 52.128807, "Longitude": -106.664963 }, "geometry": { "type": "Point", "coordinates": [ -106.664963, 52.128807, 0.0 ] } },
{ "type": "Feature", "properties": { "OBJECTID": 13, "Province": "Alberta", "City": "Calgary", "Address": "23 Sunpark Drive SE, Suite 120", "Site_Type": "PPT", "Site_Name": "Calgary Sundance", "POSUI": "4600", "Latitude": 50.924547, "Longitude": -114.072611 }, "geometry": { "type": "Point", "coordinates": [ -114.05537822299999, 50.90440122900003, 0.0 ] } },
{ "type": "Feature", "properties": { "OBJECTID": 14, "Province": "Alberta", "City": "Edmonton", "Address": "9700 Jasper Avenue, Suite 126", "Site_Type": "PPT", "Site_Name": "Edmonton", "Building": "Canada Place Building", "POSUI": "6002", "Latitude": 53.542147, "Longitude": -113.486235 }, "geometry": { "type": "Point", "coordinates": [ -113.486235, 53.542147, 0.0 ] } },
{ "type": "Feature", "properties": { "OBJECTID": 15, "Province": "British Columbia", "City": "Richmond", "Address": "5611 Cooney Road, Suite 310", "Site_Type": "PPT", "Site_Name": "Richmond", "POSUI": "6006", "Latitude": 49.172323, "Longitude": -123.131849 }, "geometry": { "type": "Point", "coordinates": [ -123.131849, 49.172323, 0.0 ] } },
{ "type": "Feature", "properties": { "OBJECTID": 16, "Province": "British Columbia", "City": "Surrey", "Address": "1109 Central City, 10153 King George Boulevard", "Site_Type": "PPT", "Site_Name": "Surrey", "Building": "Central City Shopping Centre", "POSUI": "6005", "Latitude": 49.186514, "Longitude": -122.848262 }, "geometry": { "type": "Point", "coordinates": [ -122.848262, 49.186514, 0.0 ] } },
{ "type": "Feature", "properties": { "OBJECTID": 17, "Province": "British Columbia", "City": "Vancouver", "Address": "757 Hastings Street West, Suite 100", "Site_Type": "PPT", "Site_Name": "Vancouver", "Building": "Sinclair Centre", "POSUI": "6004", "Latitude": 49.285882, "Longitude": -123.113927 }, "geometry": { "type": "Point", "coordinates": [ -123.113927, 49.285882, 0.0 ] } },
{ "type": "Feature", "properties": { "OBJECTID": 18, "Province": "British Columbia", "City": "Victoria", "Address": "1150 Douglas Street, Level 4", "Site_Type": "PPT", "Site_Name": "Victoria", "Building": "Bay Centre", "POSUI": "6003", "Latitude": 48.425069, "Longitude": -123.365633 }, "geometry": { "type": "Point", "coordinates": [ -123.365633, 48.425069, 0.0 ] } },
{ "type": "Feature", "properties": { "OBJECTID": 19, "Province": "British Columbia", "City": "Kelowna", "Address": "1835 Gordon Drive, Suite 110", "Site_Type": "PPT", "Site_Name": "Kelowna", "Building": "Capri Centre", "POSUI": "6007", "Latitude": 49.881535, "Longitude": -119.47522 }, "geometry": { "type": "Point", "coordinates": [ -119.47522, 49.881535, 0.0 ] } },
{ "type": "Feature", "properties": { "OBJECTID": 20, "Province": "Ontario", "City": "Brampton", "Address": "40 Gillingham Drive, Suite 401", "Site_Type": "PPT", "Site_Name": "Brampton", "POSUI": "6024", "Latitude": 43.702347, "Longitude": -79.786844 }, "geometry": { "type": "Point", "coordinates": [ -79.786844, 43.702347, 0.0 ] } },
{ "type": "Feature", "properties": { "OBJECTID": 21, "Province": "Ontario", "City": "Kitchener", "Address": "40 Weber Street East, Mezzanine Level", "Site_Type": "PPT", "Site_Name": "Kitchener", "POSUI": "6022", "Latitude": 43.451089, "Longitude": -80.48493 }, "geometry": { "type": "Point", "coordinates": [ -80.48493, 43.451089, 0.0 ] } },
{ "type": "Feature", "properties": { "OBJECTID": 22, "Province": "Ontario", "City": "London", "Address": "301 Oxford Street West, Suite 76", "Site_Type": "PPT", "Site_Name": "London", "Building": "Cherryhill Village Mall", "POSUI": "6021", "Latitude": 42.990341, "Longitude": -81.275042 }, "geometry": { "type": "Point", "coordinates": [ -81.275042, 42.990341, 0.0 ] } },
{ "type": "Feature", "properties": { "OBJECTID": 23, "Province": "Ontario", "City": "Mississauga", "Address": "377 Burnhamthorpe Road East, Main Floor, Suite 22", "Site_Type": "PPT", "Site_Name": "Mississauga", "Building": "Central Parkway Mall", "POSUI": "6020", "Latitude": 43.603116, "Longitude": -79.627043 }, "geometry": { "type": "Point", "coordinates": [ -79.627043, 43.603116, 0.0 ] } },
{ "type": "Feature", "properties": { "OBJECTID": 24, "Province": "Ontario", "City": "North York", "Address": "4900 Yonge Street, 3rd Floor, Suite 380", "Site_Type": "PPT", "Site_Name": "North York", "Building": "Joseph Shepard Building", "POSUI": "6019", "Latitude": 43.76327, "Longitude": -79.412865 }, "geometry": { "type": "Point", "coordinates": [ -79.412865, 43.76327, 0.0 ] } },
{ "type": "Feature", "properties": { "OBJECTID": 25, "Province": "Ontario", "City": "Ottawa", "Address": "885 Meadowlands Drive East , Suite 115", "Site_Type": "PPT", "Site_Name": "Ottawa", "POSUI": "6018", "Latitude": 45.368455, "Longitude": -75.702842 }, "geometry": { "type": "Point", "coordinates": [ -75.702842, 45.368455, 0.0 ] } },
{ "type": "Feature", "properties": { "OBJECTID": 26, "Province": "Ontario", "City": "Scarborough", "Address": "200 Town Centre Court, Suite 210", "Site_Type": "PPT", "Site_Name": "Scarborough", "POSUI": "6017", "Latitude": 43.774305, "Longitude": -79.256603 }, "geometry": { "type": "Point", "coordinates": [ -79.256603, 43.774305, 0.0 ] } },
{ "type": "Feature", "properties": { "OBJECTID": 27, "Province": "Ontario", "City": "St. Catharines", "Address": "221 Glendale Avenue, Suite 604", "Site_Type": "PPT", "Site_Name": "St. Catharines", "Building": "Pen Centre", "POSUI": "6016", "Latitude": 43.136393, "Longitude": -79.225455 }, "geometry": { "type": "Point", "coordinates": [ -79.225455, 43.136393, 0.0 ] } },
{ "type": "Feature", "properties": { "OBJECTID": 28, "Province": "Ontario", "City": "Thunder Bay", "Address": "979 Alloy Drive, 2nd Floor", "Site_Type": "PPT", "Site_Name": "Thunder Bay", "POSUI": "6015", "Latitude": 48.407486, "Longitude": -89.255125 }, "geometry": { "type": "Point", "coordinates": [ -89.255125, 48.407486, 0.0 ] } },
{ "type": "Feature", "properties": { "OBJECTID": 29, "Province": "Ontario", "City": "Toronto", "Address": "74 Victoria Street, Suite 300", "Site_Type": "PPT", "Site_Name": "Toronto", "POSUI": "6014", "Latitude": 43.651166, "Longitude": -79.377765 }, "geometry": { "type": "Point", "coordinates": [ -79.377765, 43.651166, 0.0 ] } },
{ "type": "Feature", "properties": { "OBJECTID": 30, "Province": "Ontario", "City": "Whitby", "Address": "1615 Dundas Street East, Suite 6", "Site_Type": "PPT", "Site_Name": "Whitby", "Building": "Whitby Mall", "POSUI": "6013", "Latitude": 43.884724, "Longitude": -78.910221 }, "geometry": { "type": "Point", "coordinates": [ -78.910221, 43.884724, 0.0 ] } },
{ "type": "Feature", "properties": { "OBJECTID": 31, "Province": "Ontario", "City": "Windsor", "Address": "100 Ouellette Avenue, Suite 503", "Site_Type": "PPT", "Site_Name": "Windsor", "Building": "CIBC Building", "POSUI": "6012", "Latitude": 42.319491, "Longitude": -83.039762 }, "geometry": { "type": "Point", "coordinates": [ -83.039762, 42.319491, 0.0 ] } },
{ "type": "Feature", "properties": { "OBJECTID": 32, "Province": "Alberta", "City": "Calgary", "Address": "220 4th Avenue SE, Suite 150", "Site_Type": "PPT", "Site_Name": "Calgary", "Building": "Harry Hays Building", "POSUI": "4802", "Latitude": 51.049604, "Longitude": -114.059565 }, "geometry": { "type": "Point", "coordinates": [ -114.059565, 51.049604, 0.0 ] } },
{ "type": "Feature", "properties": { "OBJECTID": 33, "Province": "Nova Scotia", "City": "Halifax", "Address": "1505 Barrington Street, 15th Floor, Suite 1508", "Site_Type": "PPT", "Site_Name": "Halifax", "Building": "Maritime Centre", "POSUI": "6011", "Latitude": 44.644365, "Longitude": -63.57229 }, "geometry": { "type": "Point", "coordinates": [ -63.57229, 44.644365, 0.0 ] } },
{ "type": "Feature", "properties": { "OBJECTID": 34, "Province": "Ontario", "City": "Hamilton", "Address": "120 King Street West, Plaza Level", "Site_Type": "PPT", "Site_Name": "Hamilton", "Building": "Standard Life Building", "POSUI": "6023", "Latitude": 43.25809, "Longitude": -79.872998 }, "geometry": { "type": "Point", "coordinates": [ -79.872998, 43.25809, 0.0 ] } }
]
}
