var SO_Sept2017 = {
"type": "FeatureCollection",
"name": "SO_Sept2017",
"crs": { "type": "name", "properties": { "name": "urn:ogc:def:crs:EPSG::4269" } },
"features": [
{ "type": "Feature", "properties": { "OBJECTID": 1, "POSUI": "1613", "Site_Name": "Minto", "Site_Type": "Scheduled Outreach", "Building": " ", "Address": "420 Pleasant Drive", "City": "Minto", "Province": "New Brunswick", "Longitude": -66.062052, "Latitude": 46.071679 }, "geometry": { "type": "Point", "coordinates": [ -66.062052, 46.071679, 0.0 ] } },
{ "type": "Feature", "properties": { "OBJECTID": 2, "POSUI": "1619", "Site_Name": "Sackville", "Site_Type": "Scheduled Outreach", "Building": "East Main Plaza", "Address": "170 Main Street", "City": "Sackville", "Province": "New Brunswick", "Longitude": -64.37403, "Latitude": 45.90274 }, "geometry": { "type": "Point", "coordinates": [ -64.37403, 45.90274, 0.0 ] } },
{ "type": "Feature", "properties": { "OBJECTID": 3, "POSUI": "1637", "Site_Name": "Doaktown", "Site_Type": "Scheduled Outreach", "Building": " ", "Address": "328 Main Street", "City": "Doaktown", "Province": "New Brunswick", "Longitude": -66.137072, "Latitude": 46.553708 }, "geometry": { "type": "Point", "coordinates": [ -66.137072, 46.553708, 0.0 ] } },
{ "type": "Feature", "properties": { "OBJECTID": 4, "POSUI": "1638", "Site_Name": "Neguac", "Site_Type": "Scheduled Outreach", "Building": " ", "Address": "430 Principale Street", "City": "Neguac", "Province": "New Brunswick", "Longitude": -65.09715, "Latitude": 47.23861 }, "geometry": { "type": "Point", "coordinates": [ -65.09715, 47.23861, 0.0 ] } },
{ "type": "Feature", "properties": { "OBJECTID": 5, "POSUI": "1674", "Site_Name": "Florenceville-Bristol", "Site_Type": "Scheduled Outreach", "Building": " ", "Address": "9172 Main Street, Unit 2", "City": "Florenceville-Bristol", "Province": "New Brunswick", "Longitude": -67.58053, "Latitude": 46.47096 }, "geometry": { "type": "Point", "coordinates": [ -67.58053, 46.47096, 0.0 ] } },
{ "type": "Feature", "properties": { "OBJECTID": 7, "POSUI": "AB-SAC", "Site_Name": "Maskwacis", "Site_Type": "Scheduled Outreach", "Building": "Maskwacis Health Services", "Address": "Corner of Minde Avenue and Wolfe Street, Ermineskin", "City": "Hobbema", "Province": "Alberta", "Longitude": -113.448071, "Latitude": 52.834253 }, "geometry": { "type": "Point", "coordinates": [ -113.448071, 52.834253, 0.0 ] } },
{ "type": "Feature", "properties": { "OBJECTID": 8, "POSUI": "AB-SAH", "Site_Name": "Athabasca", "Site_Type": "Scheduled Outreach", "Building": "Duniece Centre", "Address": "4810 50th Street , Floor: 3", "City": "Athabasca", "Province": "Alberta", "Longitude": -113.285472, "Latitude": 54.718554 }, "geometry": { "type": "Point", "coordinates": [ -113.285472, 54.718554, 0.0 ] } },
{ "type": "Feature", "properties": { "OBJECTID": 9, "POSUI": "AB-SAI", "Site_Name": "Rocky Mountain House", "Site_Type": "Scheduled Outreach", "Building": "Alberta Works (Alberta Service Centre)", "Address": "4919 51st Street", "City": "Rocky Mountain House", "Province": "Alberta", "Longitude": -114.92044, "Latitude": 52.373421 }, "geometry": { "type": "Point", "coordinates": [ -114.92044, 52.373421, 0.0 ] } },
{ "type": "Feature", "properties": { "OBJECTID": 10, "POSUI": "AB-SAJ", "Site_Name": "Drumheller", "Site_Type": "Scheduled Outreach", "Building": "Riverside Center", "Address": "180 Riverside Drive East, Floor: 2", "City": "Drumheller", "Province": "Alberta", "Longitude": -112.7052, "Latitude": 51.46584 }, "geometry": { "type": "Point", "coordinates": [ -112.7052, 51.46584, 0.0 ] } },
{ "type": "Feature", "properties": { "OBJECTID": 11, "POSUI": "AB-SAK", "Site_Name": "Blairmore", "Site_Type": "Scheduled Outreach", "Building": "Provincial Building - Alberta Works", "Address": "12501 20th Avenue", "City": "Blairmore", "Province": "Alberta", "Longitude": -114.443608, "Latitude": 49.608726 }, "geometry": { "type": "Point", "coordinates": [ -114.443608, 49.608726, 0.0 ] } },
{ "type": "Feature", "properties": { "OBJECTID": 15, "POSUI": "AB-SAO", "Site_Name": "Hinton", "Site_Type": "Scheduled Outreach", "Building": " ", "Address": "568 Carmichael Lane", "City": "Hinton", "Province": "Alberta", "Longitude": -117.607158, "Latitude": 53.39406 }, "geometry": { "type": "Point", "coordinates": [ -117.607158, 53.39406, 0.0 ] } },
{ "type": "Feature", "properties": { "OBJECTID": 16, "POSUI": "AB-SAP", "Site_Name": "Drayton Valley", "Site_Type": "Scheduled Outreach", "Building": "Alberta Service Centre", "Address": "5136 51 Avenue , Floor: 2", "City": "Drayton Valley", "Province": "Alberta", "Longitude": -114.980198, "Latitude": 53.222593 }, "geometry": { "type": "Point", "coordinates": [ -114.980198, 53.222593, 0.0 ] } },
{ "type": "Feature", "properties": { "OBJECTID": 17, "POSUI": "AB-SAQ", "Site_Name": "Lac La Biche", "Site_Type": "Scheduled Outreach", "Building": "Alberta Service Centre - Provincial Building", "Address": "9503 Beaver Hill Road", "City": "Lac La Biche", "Province": "Alberta", "Longitude": -111.960237, "Latitude": 54.770278 }, "geometry": { "type": "Point", "coordinates": [ -111.960237, 54.770278, 0.0 ] } },
{ "type": "Feature", "properties": { "OBJECTID": 18, "POSUI": "AB-SAR", "Site_Name": "Peace River", "Site_Type": "Scheduled Outreach", "Building": "Midwest Building", "Address": "9715 - 100th Street", "City": "Peace River", "Province": "Alberta", "Longitude": -117.29742, "Latitude": 56.243191 }, "geometry": { "type": "Point", "coordinates": [ -117.289829, 56.235712270000079, 0.0 ] } },
{ "type": "Feature", "properties": { "OBJECTID": 19, "POSUI": "AB-SAS", "Site_Name": "Barrhead", "Site_Type": "Scheduled Outreach", "Building": "Alberta Service Centre", "Address": "6203 49 Street", "City": "Barrhead", "Province": "Alberta", "Longitude": -114.400303, "Latitude": 54.137174 }, "geometry": { "type": "Point", "coordinates": [ -114.400303, 54.137174, 0.0 ] } },
{ "type": "Feature", "properties": { "OBJECTID": 20, "POSUI": "AB-SAT", "Site_Name": "Stettler", "Site_Type": "Scheduled Outreach", "Building": "Alberta Service Centre", "Address": "4835 50 Street", "City": "Stettler", "Province": "Alberta", "Longitude": -112.704811, "Latitude": 52.324246 }, "geometry": { "type": "Point", "coordinates": [ -112.704811, 52.324246, 0.0 ] } },
{ "type": "Feature", "properties": { "OBJECTID": 21, "POSUI": "AB-SAU", "Site_Name": "Vegreville", "Site_Type": "Scheduled Outreach", "Building": "Alberta Service Centre", "Address": "5121 49 Street", "City": "Vegreville", "Province": "Alberta", "Longitude": -112.048316, "Latitude": 53.494934 }, "geometry": { "type": "Point", "coordinates": [ -112.048316, 53.494934, 0.0 ] } },
{ "type": "Feature", "properties": { "OBJECTID": 22, "POSUI": "AB-SAV", "Site_Name": "Westlock", "Site_Type": "Scheduled Outreach", "Building": "Alberta Service Centre", "Address": "11304 99 Street", "City": "Westlock", "Province": "Alberta", "Longitude": -113.829108, "Latitude": 54.150003 }, "geometry": { "type": "Point", "coordinates": [ -113.829108, 54.150003, 0.0 ] } },
{ "type": "Feature", "properties": { "OBJECTID": 23, "POSUI": "AB-SAW", "Site_Name": "High Level", "Site_Type": "Scheduled Outreach", "Building": "Alberta Service Centre - Provincial Building", "Address": "10106 100 Avenue", "City": "High Level", "Province": "Alberta", "Longitude": -117.133951, "Latitude": 58.520326 }, "geometry": { "type": "Point", "coordinates": [ -117.133951, 58.520326, 0.0 ] } },
{ "type": "Feature", "properties": { "OBJECTID": 24, "POSUI": "AB-SAX", "Site_Name": "Whitecourt", "Site_Type": "Scheduled Outreach", "Building": "Midtown Mall", "Address": "5115 49th Street", "City": "Whitecourt", "Province": "Alberta", "Longitude": -115.681322, "Latitude": 54.141766 }, "geometry": { "type": "Point", "coordinates": [ -115.681322, 54.141766, 0.0 ] } },
{ "type": "Feature", "properties": { "OBJECTID": 25, "POSUI": "AB-SAZ", "Site_Name": "High Prairie", "Site_Type": "Scheduled Outreach", "Building": "Alberta Service Centre", "Address": "5226 53 Avenue , Floor: 2", "City": "High Prairie", "Province": "Alberta", "Longitude": -116.503358, "Latitude": 55.433776 }, "geometry": { "type": "Point", "coordinates": [ -116.503358, 55.433776, 0.0 ] } },
{ "type": "Feature", "properties": { "OBJECTID": 26, "POSUI": "AB-SBB", "Site_Name": "Olds", "Site_Type": "Scheduled Outreach", "Building": "Alberta Works (Ralph Klein Centre)", "Address": "4500 50th Street", "City": "Olds", "Province": "Alberta", "Longitude": -114.09308, "Latitude": 51.78579 }, "geometry": { "type": "Point", "coordinates": [ -114.09308, 51.78579, 0.0 ] } },
{ "type": "Feature", "properties": { "OBJECTID": 27, "POSUI": "BC-SAM", "Site_Name": "Bella Bella", "Site_Type": "Scheduled Outreach", "Building": "Heiltsuk Social Development Office", "Address": " ", "City": "Bella Bella", "Province": "British Columbia", "Longitude": -128.146235, "Latitude": 52.165283 }, "geometry": { "type": "Point", "coordinates": [ -128.146235, 52.165283, 0.0 ] } },
{ "type": "Feature", "properties": { "OBJECTID": 28, "POSUI": "BC-SAQ", "Site_Name": "Hope", "Site_Type": "Scheduled Outreach", "Building": " ", "Address": "895 3rd Avenue", "City": "Hope", "Province": "British Columbia", "Longitude": -121.439862, "Latitude": 49.378475 }, "geometry": { "type": "Point", "coordinates": [ -121.439862, 49.378475, 0.0 ] } },
{ "type": "Feature", "properties": { "OBJECTID": 29, "POSUI": "BC-SAY", "Site_Name": "Alert Bay", "Site_Type": "Scheduled Outreach", "Building": "Namgis Health Centre", "Address": "48 School Road", "City": "Alert Bay", "Province": "British Columbia", "Longitude": -126.94287, "Latitude": 50.5938 }, "geometry": { "type": "Point", "coordinates": [ -126.94287, 50.5938, 0.0 ] } },
{ "type": "Feature", "properties": { "OBJECTID": 30, "POSUI": "BC-SAZ", "Site_Name": "Clearwater", "Site_Type": "Scheduled Outreach", "Building": " ", "Address": "209 Dutch Lake Road", "City": "Clearwater", "Province": "British Columbia", "Longitude": -120.06554, "Latitude": 51.649841 }, "geometry": { "type": "Point", "coordinates": [ -120.06554, 51.649841, 0.0 ] } },
{ "type": "Feature", "properties": { "OBJECTID": 31, "POSUI": "BC-SBH", "Site_Name": "Fort St John", "Site_Type": "Scheduled Outreach", "Building": "Northern Lights College", "Address": "9820 - 120th Avenue", "City": "Fort St. John", "Province": "British Columbia", "Longitude": -120.843059, "Latitude": 56.26690016 }, "geometry": { "type": "Point", "coordinates": [ -120.843059, 56.266900160000034, 0.0 ] } },
{ "type": "Feature", "properties": { "OBJECTID": 32, "POSUI": "BC-SBJ", "Site_Name": "Port Hardy", "Site_Type": "Scheduled Outreach", "Building": " ", "Address": "8785 Gray Street", "City": "Port Hardy", "Province": "British Columbia", "Longitude": -127.49462, "Latitude": 50.71967 }, "geometry": { "type": "Point", "coordinates": [ -127.49462, 50.71967, 0.0 ] } },
{ "type": "Feature", "properties": { "OBJECTID": 33, "POSUI": "BC-SBK", "Site_Name": "Whistler", "Site_Type": "Scheduled Outreach", "Building": "Whistler Chamber of Commerce", "Address": "4230 Gateway Drive , Room 201", "City": "Whistler", "Province": "British Columbia", "Longitude": -122.955851, "Latitude": 50.115638 }, "geometry": { "type": "Point", "coordinates": [ -122.955851, 50.115638, 0.0 ] } },
{ "type": "Feature", "properties": { "OBJECTID": 34, "POSUI": "BC-SBL", "Site_Name": "Merritt", "Site_Type": "Scheduled Outreach", "Building": "Rail Yard Mall", "Address": "2194 Coutlee Avenue", "City": "Merritt", "Province": "British Columbia", "Longitude": -120.786355, "Latitude": 50.1083 }, "geometry": { "type": "Point", "coordinates": [ -120.786355, 50.1083, 0.0 ] } },
{ "type": "Feature", "properties": { "OBJECTID": 35, "POSUI": "BC-SBM", "Site_Name": "Mackenzie", "Site_Type": "Scheduled Outreach", "Building": " ", "Address": "64 Centennial Drive", "City": "Mackenzie", "Province": "British Columbia", "Longitude": -123.09558, "Latitude": 55.33876 }, "geometry": { "type": "Point", "coordinates": [ -123.09558, 55.33876, 0.0 ] } },
{ "type": "Feature", "properties": { "OBJECTID": 36, "POSUI": "BC-SBO", "Site_Name": "Sunshine Coast", "Site_Type": "Scheduled Outreach", "Building": " ", "Address": "102-5710 Teredo Street", "City": "Sechelt", "Province": "British Columbia", "Longitude": -123.75761, "Latitude": 49.47151 }, "geometry": { "type": "Point", "coordinates": [ -123.75761, 49.47151, 0.0 ] } },
{ "type": "Feature", "properties": { "OBJECTID": 37, "POSUI": "BC-SBP", "Site_Name": "Queen Charlotte", "Site_Type": "Scheduled Outreach", "Building": " ", "Address": "216 Oceanview Drive", "City": "Queen Charlotte", "Province": "British Columbia", "Longitude": -132.08065, "Latitude": 53.25475 }, "geometry": { "type": "Point", "coordinates": [ -132.08065, 53.25475, 0.0 ] } },
{ "type": "Feature", "properties": { "OBJECTID": 38, "POSUI": "BC-SBQ", "Site_Name": "Castlegar", "Site_Type": "Scheduled Outreach", "Building": " ", "Address": "1020 Columbia Avenue", "City": "Castlegar", "Province": "British Columbia", "Longitude": -117.66354, "Latitude": 49.31366 }, "geometry": { "type": "Point", "coordinates": [ -117.66354, 49.31366, 0.0 ] } },
{ "type": "Feature", "properties": { "OBJECTID": 39, "POSUI": "BC-SBR", "Site_Name": "Clinton", "Site_Type": "Scheduled Outreach", "Building": " ", "Address": "1423 Cariboo Highway", "City": "Clinton", "Province": "British Columbia", "Longitude": -121.58655, "Latitude": 51.09175 }, "geometry": { "type": "Point", "coordinates": [ -121.58655, 51.09175, 0.0 ] } },
{ "type": "Feature", "properties": { "OBJECTID": 40, "POSUI": "BC-SBS", "Site_Name": "100 Mile House", "Site_Type": "Scheduled Outreach", "Building": " ", "Address": "300 South Highway 97", "City": "100 Mile House", "Province": "British Columbia", "Longitude": -121.29743, "Latitude": 51.64445 }, "geometry": { "type": "Point", "coordinates": [ -121.29743, 51.64445, 0.0 ] } },
{ "type": "Feature", "properties": { "OBJECTID": 41, "POSUI": "BC-SBT", "Site_Name": "Ashcroft", "Site_Type": "Scheduled Outreach", "Building": " ", "Address": "318 Railway Avenue", "City": "Ashcroft", "Province": "British Columbia", "Longitude": -121.27954, "Latitude": 50.72338 }, "geometry": { "type": "Point", "coordinates": [ -121.27954, 50.72338, 0.0 ] } },
{ "type": "Feature", "properties": { "OBJECTID": 42, "POSUI": "BC-SBU", "Site_Name": "Burns Lake", "Site_Type": "Scheduled Outreach", "Building": " ", "Address": "161 Highway 16", "City": "Burns Lake", "Province": "British Columbia", "Longitude": -125.755997, "Latitude": 54.225152 }, "geometry": { "type": "Point", "coordinates": [ -125.755997, 54.225152, 0.0 ] } },
{ "type": "Feature", "properties": { "OBJECTID": 43, "POSUI": "BC-SBV", "Site_Name": "Bella Coola", "Site_Type": "Scheduled Outreach", "Building": " ", "Address": "636 Cliff Street", "City": "Bella Coola", "Province": "British Columbia", "Longitude": -126.753945, "Latitude": 52.372128 }, "geometry": { "type": "Point", "coordinates": [ -126.753945, 52.372128, 0.0 ] } },
{ "type": "Feature", "properties": { "OBJECTID": 44, "POSUI": "BC-SBW", "Site_Name": "Grand Forks", "Site_Type": "Scheduled Outreach", "Building": " ", "Address": "7290 2nd Street", "City": "Grand Forks", "Province": "British Columbia", "Longitude": -118.436817, "Latitude": 49.032649 }, "geometry": { "type": "Point", "coordinates": [ -118.436817, 49.032649, 0.0 ] } },
{ "type": "Feature", "properties": { "OBJECTID": 45, "POSUI": "MB-SAA", "Site_Name": "Arborg", "Site_Type": "Scheduled Outreach", "Building": " ", "Address": "317 River Road", "City": "Arborg", "Province": "Manitoba", "Longitude": -97.221616, "Latitude": 50.907303 }, "geometry": { "type": "Point", "coordinates": [ -97.221616, 50.907303, 0.0 ] } },
{ "type": "Feature", "properties": { "OBJECTID": 46, "POSUI": "MB-SAB", "Site_Name": "Ashern", "Site_Type": "Scheduled Outreach", "Building": "Life Centre Office - TBJ Mall", "Address": "4-61 Main Street", "City": "Ashern", "Province": "Manitoba", "Longitude": -98.349141, "Latitude": 51.181307 }, "geometry": { "type": "Point", "coordinates": [ -98.349141, 51.181307, 0.0 ] } },
{ "type": "Feature", "properties": { "OBJECTID": 47, "POSUI": "MB-SAG", "Site_Name": "Deloraine", "Site_Type": "Scheduled Outreach", "Building": " ", "Address": "220 South Railway Avenue", "City": "Deloraine", "Province": "Manitoba", "Longitude": -100.49667, "Latitude": 49.19228 }, "geometry": { "type": "Point", "coordinates": [ -100.49667, 49.19228, 0.0 ] } },
{ "type": "Feature", "properties": { "OBJECTID": 48, "POSUI": "MB-SAI", "Site_Name": "Fisher Branch", "Site_Type": "Scheduled Outreach", "Building": " ", "Address": "23 Main Street", "City": "Fisher Branch", "Province": "Manitoba", "Longitude": -97.617154, "Latitude": 51.084668 }, "geometry": { "type": "Point", "coordinates": [ -97.617154, 51.084668, 0.0 ] } },
{ "type": "Feature", "properties": { "OBJECTID": 49, "POSUI": "MB-SAK", "Site_Name": "Gimli", "Site_Type": "Scheduled Outreach", "Building": " ", "Address": "62 2nd Avenue , Floor: 2", "City": "Gimli", "Province": "Manitoba", "Longitude": -96.987651, "Latitude": 50.634106 }, "geometry": { "type": "Point", "coordinates": [ -96.987651, 50.634106, 0.0 ] } },
{ "type": "Feature", "properties": { "OBJECTID": 50, "POSUI": "MB-SAN", "Site_Name": "Killarney", "Site_Type": "Scheduled Outreach", "Building": " ", "Address": "318 Williams Avenue", "City": "Killarney", "Province": "Manitoba", "Longitude": -99.666508, "Latitude": 49.181301 }, "geometry": { "type": "Point", "coordinates": [ -99.666508, 49.181301, 0.0 ] } },
{ "type": "Feature", "properties": { "OBJECTID": 51, "POSUI": "MB-SAO", "Site_Name": "Lac du Bonnet", "Site_Type": "Scheduled Outreach", "Building": " ", "Address": "4 Park Avenue", "City": "Lac du Bonnet", "Province": "Manitoba", "Longitude": -96.059254, "Latitude": 50.258229 }, "geometry": { "type": "Point", "coordinates": [ -96.059254, 50.258229, 0.0 ] } },
{ "type": "Feature", "properties": { "OBJECTID": 52, "POSUI": "MB-SAR", "Site_Name": "Minnedosa", "Site_Type": "Scheduled Outreach", "Building": "Yellowhead Regional Employment Skills & Services", "Address": "133 Main Street South", "City": "Minnedosa", "Province": "Manitoba", "Longitude": -99.838855, "Latitude": 50.246269 }, "geometry": { "type": "Point", "coordinates": [ -99.838855, 50.246269, 0.0 ] } },
{ "type": "Feature", "properties": { "OBJECTID": 53, "POSUI": "MB-SAS", "Site_Name": "Morris", "Site_Type": "Scheduled Outreach", "Building": " ", "Address": "220 Main Street North", "City": "Morris", "Province": "Manitoba", "Longitude": -97.364082, "Latitude": 49.356843 }, "geometry": { "type": "Point", "coordinates": [ -97.364082, 49.356843, 0.0 ] } },
{ "type": "Feature", "properties": { "OBJECTID": 54, "POSUI": "MB-SAT", "Site_Name": "Neepawa", "Site_Type": "Scheduled Outreach", "Building": " ", "Address": "41 Main Street East", "City": "Neepawa", "Province": "Manitoba", "Longitude": -99.4762444, "Latitude": 50.2266248000001 }, "geometry": { "type": "Point", "coordinates": [ -99.476244399999985, 50.226624800000081, 0.0 ] } },
{ "type": "Feature", "properties": { "OBJECTID": 55, "POSUI": "MB-SAV", "Site_Name": "Russell", "Site_Type": "Scheduled Outreach", "Building": "IGA Mall", "Address": "Main Street and Lawrence Avenue", "City": "Russell", "Province": "Manitoba", "Longitude": -101.288345, "Latitude": 50.778007 }, "geometry": { "type": "Point", "coordinates": [ -101.288345, 50.778007, 0.0 ] } },
{ "type": "Feature", "properties": { "OBJECTID": 56, "POSUI": "MB-SAW", "Site_Name": "Shoal Lake", "Site_Type": "Scheduled Outreach", "Building": " ", "Address": "438 Station Street", "City": "Shoal Lake", "Province": "Manitoba", "Longitude": -100.591037, "Latitude": 50.437939 }, "geometry": { "type": "Point", "coordinates": [ -100.591037, 50.437939, 0.0 ] } },
{ "type": "Feature", "properties": { "OBJECTID": 57, "POSUI": "MB-SBA", "Site_Name": "Virden", "Site_Type": "Scheduled Outreach", "Building": " ", "Address": "227 Wellington Street West", "City": "Virden", "Province": "Manitoba", "Longitude": -100.930877, "Latitude": 49.849091 }, "geometry": { "type": "Point", "coordinates": [ -100.930877, 49.849091, 0.0 ] } },
{ "type": "Feature", "properties": { "OBJECTID": 58, "POSUI": "MB-SBB", "Site_Name": "Snow Lake", "Site_Type": "Scheduled Outreach", "Building": "Snow Lake Family Resource Centre", "Address": "131 Balsam Street", "City": "Snow Lake", "Province": "Manitoba", "Longitude": -100.024663, "Latitude": 54.882799 }, "geometry": { "type": "Point", "coordinates": [ -100.024663, 54.882799, 0.0 ] } },
{ "type": "Feature", "properties": { "OBJECTID": 59, "POSUI": "MB-SBF", "Site_Name": "Sprague", "Site_Type": "Scheduled Outreach", "Building": "East Borderland Primary Health Care Centre", "Address": "Corner of Highway 12 & Road 308", "City": "Sprague", "Province": "Manitoba", "Longitude": -95.645415, "Latitude": 49.023805 }, "geometry": { "type": "Point", "coordinates": [ -95.645415, 49.023805, 0.0 ] } },
{ "type": "Feature", "properties": { "OBJECTID": 60, "POSUI": "MB-SBJ", "Site_Name": "St. Laurent", "Site_Type": "Scheduled Outreach", "Building": "St. Laurent Recreation Centre", "Address": "Lot 825 on Highway 6", "City": "St. Laurent", "Province": "Manitoba", "Longitude": -97.942403, "Latitude": 50.413655 }, "geometry": { "type": "Point", "coordinates": [ -97.942403, 50.413655, 0.0 ] } },
{ "type": "Feature", "properties": { "OBJECTID": 61, "POSUI": "MB-SBK", "Site_Name": "St-Georges", "Site_Type": "Scheduled Outreach", "Building": "Allard Library", "Address": "104086 Highway 11", "City": "St-Georges", "Province": "Manitoba", "Longitude": -96.150132, "Latitude": 50.540236 }, "geometry": { "type": "Point", "coordinates": [ -96.150132, 50.540236, 0.0 ] } },
{ "type": "Feature", "properties": { "OBJECTID": 62, "POSUI": "MB-SBM", "Site_Name": "Winnipeg - St Boniface", "Site_Type": "Scheduled Outreach", "Building": " ", "Address": "170 Goulet Street", "City": "Winnipeg", "Province": "Manitoba", "Longitude": -97.11198, "Latitude": 49.892194 }, "geometry": { "type": "Point", "coordinates": [ -97.121071799999982, 49.88221980000003, 0.0 ] } },
{ "type": "Feature", "properties": { "OBJECTID": 63, "POSUI": "MB-SBN", "Site_Name": "Norway House", "Site_Type": "Scheduled Outreach", "Building": " Norway House Education Centre", "Address": " ", "City": "Norway House", "Province": "Manitoba", "Longitude": -97.83293, "Latitude": 53.982011 }, "geometry": { "type": "Point", "coordinates": [ -97.83293, 53.982011, 0.0 ] } },
{ "type": "Feature", "properties": { "OBJECTID": 64, "POSUI": "MB-SBO", "Site_Name": "Cross Lake", "Site_Type": "Scheduled Outreach", "Building": "Community Council Building", "Address": "451 Spruce Crescent", "City": "Cross Lake", "Province": "Manitoba", "Longitude": -97.7765929, "Latitude": 54.624583770000072 }, "geometry": { "type": "Point", "coordinates": [ -97.776592899999969, 54.624583770000072, 0.0 ] } },
{ "type": "Feature", "properties": { "OBJECTID": 65, "POSUI": "NB-SAA", "Site_Name": "Rogersville", "Site_Type": "Scheduled Outreach", "Building": " ", "Address": "11117 Main Street", "City": "Rogersville", "Province": "New Brunswick", "Longitude": -65.427199, "Latitude": 46.732534 }, "geometry": { "type": "Point", "coordinates": [ -65.427199, 46.732534, 0.0 ] } },
{ "type": "Feature", "properties": { "OBJECTID": 66, "POSUI": "NB-SAB", "Site_Name": "Baie-Sainte-Anne", "Site_Type": "Scheduled Outreach", "Building": " ", "Address": "5383 Route 117", "City": "Baie-Sainte-Anne", "Province": "New Brunswick", "Longitude": -64.967312, "Latitude": 47.046373 }, "geometry": { "type": "Point", "coordinates": [ -64.967312, 47.046373, 0.0 ] } },
{ "type": "Feature", "properties": { "OBJECTID": 67, "POSUI": "NB-SAD", "Site_Name": "Grand Manan", "Site_Type": "Scheduled Outreach", "Building": " ", "Address": "1021 Route 776", "City": "Grand Manan", "Province": "New Brunswick", "Longitude": -66.7526292, "Latitude": 44.693106240000077 }, "geometry": { "type": "Point", "coordinates": [ -66.752629199999944, 44.693106240000077, 0.0 ] } },
{ "type": "Feature", "properties": { "OBJECTID": 68, "POSUI": "NF-SAA", "Site_Name": "Port au Port", "Site_Type": "Scheduled Outreach", "Building": "School and Community Centre of Sainte-Anne", "Address": "Route 463", "City": "Mainland", "Province": "Newfoundland and Labrador", "Longitude": -58.916647, "Latitude": 48.530461 }, "geometry": { "type": "Point", "coordinates": [ -58.916647, 48.530461, 0.0 ] } },
{ "type": "Feature", "properties": { "OBJECTID": 69, "POSUI": "NF-SAB", "Site_Name": "Sheshatshiu", "Site_Type": "Scheduled Outreach", "Building": "Innu Nation Building", "Address": ", Floor: Main", "City": "Sheshatshiu", "Province": "Newfoundland and Labrador", "Longitude": -60.145645, "Latitude": 53.517411 }, "geometry": { "type": "Point", "coordinates": [ -60.145645, 53.517411, 0.0 ] } },
{ "type": "Feature", "properties": { "OBJECTID": 70, "POSUI": "NF-SAC", "Site_Name": "Old Perlican", "Site_Type": "Scheduled Outreach", "Building": "John Hoskins Community Centre", "Address": "575 A Main Street", "City": "Old Perlican", "Province": "Newfoundland and Labrador", "Longitude": -53.006095, "Latitude": 48.082055 }, "geometry": { "type": "Point", "coordinates": [ -53.006095, 48.082055, 0.0 ] } },
{ "type": "Feature", "properties": { "OBJECTID": 71, "POSUI": "NF-SAD", "Site_Name": "Trepassey", "Site_Type": "Scheduled Outreach", "Building": "Opportunities Complex", "Address": "Main Highway", "City": "Trepassey", "Province": "Newfoundland and Labrador", "Longitude": -53.352867, "Latitude": 46.737489 }, "geometry": { "type": "Point", "coordinates": [ -53.352867, 46.737489, 0.0 ] } },
{ "type": "Feature", "properties": { "OBJECTID": 72, "POSUI": "NF-SAE", "Site_Name": "Forteau", "Site_Type": "Scheduled Outreach", "Building": " ", "Address": "32 Main Street", "City": "Forteau", "Province": "Newfoundland and Labrador", "Longitude": -56.956622, "Latitude": 51.480081 }, "geometry": { "type": "Point", "coordinates": [ -56.956622, 51.480081, 0.0 ] } },
{ "type": "Feature", "properties": { "OBJECTID": 73, "POSUI": "NF-SAG", "Site_Name": "Lumsden", "Site_Type": "Scheduled Outreach", "Building": "Town of Lumsden", "Address": "61 Centennial Road", "City": "Lumsden", "Province": "Newfoundland and Labrador", "Longitude": -53.6036, "Latitude": 49.29652 }, "geometry": { "type": "Point", "coordinates": [ -53.6036, 49.29652, 0.0 ] } },
{ "type": "Feature", "properties": { "OBJECTID": 74, "POSUI": "NF-SAH", "Site_Name": "Bonavista", "Site_Type": "Scheduled Outreach", "Building": "College of the North Atlantic - Bonavista Campus", "Address": "301 Confederation Drive , Room A118", "City": "Bonavista", "Province": "Newfoundland and Labrador", "Longitude": -53.101851, "Latitude": 48.640538 }, "geometry": { "type": "Point", "coordinates": [ -53.101851, 48.640538, 0.0 ] } },
{ "type": "Feature", "properties": { "OBJECTID": 75, "POSUI": "NF-SAI", "Site_Name": "Port Saunders", "Site_Type": "Scheduled Outreach", "Building": "Dobbin Building", "Address": "90 Main Street", "City": "Port Saunders", "Province": "Newfoundland and Labrador", "Longitude": -57.302778, "Latitude": 50.648196 }, "geometry": { "type": "Point", "coordinates": [ -57.302778, 50.648196, 0.0 ] } },
{ "type": "Feature", "properties": { "OBJECTID": 76, "POSUI": "NF-SAK", "Site_Name": "St. Alban's", "Site_Type": "Scheduled Outreach", "Building": "St. Alban's Resource Centre", "Address": "2 Cormier Avenue", "City": "St. Alban's", "Province": "Newfoundland and Labrador", "Longitude": -55.843158, "Latitude": 47.880241 }, "geometry": { "type": "Point", "coordinates": [ -55.843158, 47.880241, 0.0 ] } },
{ "type": "Feature", "properties": { "OBJECTID": 77, "POSUI": "NF-SAL", "Site_Name": "Baie Verte", "Site_Type": "Scheduled Outreach", "Building": "College of the North Atlantic - Baie Verte Campus", "Address": "1 Terra Nova Road", "City": "Baie Verte", "Province": "Newfoundland and Labrador", "Longitude": -56.2232315, "Latitude": 49.920538520000036 }, "geometry": { "type": "Point", "coordinates": [ -56.2232315, 49.920538520000036, 0.0 ] } },
{ "type": "Feature", "properties": { "OBJECTID": 78, "POSUI": "NF-SAM", "Site_Name": "Virgin Arm", "Site_Type": "Scheduled Outreach", "Building": "", "Address": "20 Route 340", "City": "Virgin Arm", "Province": "Newfoundland and Labrador", "Longitude": -54.763696, "Latitude": 49.64679 }, "geometry": { "type": "Point", "coordinates": [ -54.773999099999969, 49.52408360000004, 0.0 ] } },
{ "type": "Feature", "properties": { "OBJECTID": 79, "POSUI": "NF-SAN", "Site_Name": "Pollard's Point", "Site_Type": "Scheduled Outreach", "Building": " ", "Address": "Main Street", "City": "Pollards Point", "Province": "Newfoundland and Labrador", "Longitude": -56.91974, "Latitude": 49.759364 }, "geometry": { "type": "Point", "coordinates": [ -56.91974, 49.759364, 0.0 ] } },
{ "type": "Feature", "properties": { "OBJECTID": 80, "POSUI": "NF-SAO", "Site_Name": "Burgeo", "Site_Type": "Scheduled Outreach", "Building": " ", "Address": "142 Reach Road", "City": "Burgeo", "Province": "Newfoundland and Labrador", "Longitude": -57.610429, "Latitude": 47.613674 }, "geometry": { "type": "Point", "coordinates": [ -57.610429, 47.613674, 0.0 ] } },
{ "type": "Feature", "properties": { "OBJECTID": 81, "POSUI": "NS-SAA", "Site_Name": "Clare", "Site_Type": "Scheduled Outreach", "Building": "Sainte-Anne University Campus", "Address": "1649 Route 1", "City": "Church Point", "Province": "Nova Scotia", "Longitude": -66.117925, "Latitude": 44.331015 }, "geometry": { "type": "Point", "coordinates": [ -66.117925, 44.331015, 0.0 ] } },
{ "type": "Feature", "properties": { "OBJECTID": 82, "POSUI": "NS-SAB", "Site_Name": "Sheet Harbour", "Site_Type": "Scheduled Outreach", "Building": "Bluewater Building", "Address": "22756 Highway 7, 2nd Floor , Floor: 2", "City": "Sheet Harbour", "Province": "Nova Scotia", "Longitude": -62.527108, "Latitude": 44.917609 }, "geometry": { "type": "Point", "coordinates": [ -62.527108, 44.917609, 0.0 ] } },
{ "type": "Feature", "properties": { "OBJECTID": 83, "POSUI": "NS-SAC", "Site_Name": "Cheticamp", "Site_Type": "Scheduled Outreach", "Building": " ", "Address": "15584 Cabot Trail", "City": "Chéticamp", "Province": "Nova Scotia", "Longitude": -61.001296, "Latitude": 46.642858 }, "geometry": { "type": "Point", "coordinates": [ -61.001296, 46.642858, 0.0 ] } },
{ "type": "Feature", "properties": { "OBJECTID": 84, "POSUI": "NS-SAD", "Site_Name": "Petit de Grat", "Site_Type": "Scheduled Outreach", "Building": " ", "Address": "3435 Route 206", "City": "Petit-de-Grat", "Province": "Nova Scotia", "Longitude": -60.961243, "Latitude": 45.514682 }, "geometry": { "type": "Point", "coordinates": [ -60.961243, 45.514682, 0.0 ] } },
{ "type": "Feature", "properties": { "OBJECTID": 85, "POSUI": "NT-SAC", "Site_Name": "Fort Liard", "Site_Type": "Scheduled Outreach", "Building": "Beaver Enterprises Ltd. Office", "Address": "Corner of Poplar Road and Birch Road, General Delivery", "City": "Fort Liard", "Province": "Northwest Territories", "Longitude": -123.43442, "Latitude": 60.24316 }, "geometry": { "type": "Point", "coordinates": [ -123.43442, 60.24316, 0.0 ] } },
{ "type": "Feature", "properties": { "OBJECTID": 86, "POSUI": "NT-SAD", "Site_Name": "Fort Providence", "Site_Type": "Scheduled Outreach", "Building": "Snowshoe Centre", "Address": "1 Mackenzie Drive", "City": "Fort Providence", "Province": "Northwest Territories", "Longitude": -117.659985, "Latitude": 61.358185, "Last_Update": "2017\/02\/27 00:00:00" }, "geometry": { "type": "Point", "coordinates": [ -117.659985, 61.358185, 0.0 ] } },
{ "type": "Feature", "properties": { "OBJECTID": 87, "POSUI": "NT-SAE", "Site_Name": "Deline", "Site_Type": "Scheduled Outreach", "Building": "Deline Charter Community Office", "Address": "P.O. Box 180", "City": "Deline", "Province": "Northwest Territories", "Longitude": -123.425447, "Latitude": 65.188342 }, "geometry": { "type": "Point", "coordinates": [ -123.425447, 65.188342, 0.0 ] } },
{ "type": "Feature", "properties": { "OBJECTID": 88, "POSUI": "NT-SAF", "Site_Name": "Tuktoyaktuk", "Site_Type": "Scheduled Outreach", "Building": "Tuktoyaktuk Government Building", "Address": "Room 103", "City": "Tuktoyaktuk", "Province": "Northwest Territories", "Longitude": -133.034, "Latitude": 69.4454, "Last_Update": "2017\/02\/27 00:00:00" }, "geometry": { "type": "Point", "coordinates": [ -133.034, 69.4454, 0.0 ] } },
{ "type": "Feature", "properties": { "OBJECTID": 89, "POSUI": "NT-SAG", "Site_Name": "Fort Resolution", "Site_Type": "Scheduled Outreach", "Building": "Deninu Ku'e First Nation Office", "Address": " ", "City": "Fort Resolution", "Province": "Northwest Territories", "Longitude": -113.674031, "Latitude": 61.171908 }, "geometry": { "type": "Point", "coordinates": [ -113.674031, 61.171908, 0.0 ] } },
{ "type": "Feature", "properties": { "OBJECTID": 90, "POSUI": "NT-SAH", "Site_Name": "Behchoko", "Site_Type": "Scheduled Outreach", "Building": "Tli Cho Government Building, Head Office", "Address": " ", "City": "Behchoko", "Province": "Northwest Territories", "Longitude": -116.054295, "Latitude": 62.827708 }, "geometry": { "type": "Point", "coordinates": [ -116.054295, 62.827708, 0.0 ] } },
{ "type": "Feature", "properties": { "OBJECTID": 91, "POSUI": "NU-SAB", "Site_Name": "Cape Dorset", "Site_Type": "Scheduled Outreach", "Building": "Chamber Office", "Address": "Hamlet of Cape Dorset", "City": "Cape Dorset", "Province": "Nunavut", "Longitude": -76.541107, "Latitude": 64.225468 }, "geometry": { "type": "Point", "coordinates": [ -76.541107, 64.225468, 0.0 ] } },
{ "type": "Feature", "properties": { "OBJECTID": 92, "POSUI": "NU-SAD", "Site_Name": "Coral Harbour", "Site_Type": "Scheduled Outreach", "Building": " ", "Address": "Hamlet of Coral Harbour", "City": "Coral Harbour", "Province": "Nunavut", "Longitude": -83.164075, "Latitude": 64.138582 }, "geometry": { "type": "Point", "coordinates": [ -83.164075, 64.138582, 0.0 ] } },
{ "type": "Feature", "properties": { "OBJECTID": 93, "POSUI": "NU-SAE", "Site_Name": "Gjoa Haven", "Site_Type": "Scheduled Outreach", "Building": " ", "Address": "Hamlet of Gjoa Haven, Box 200", "City": "Gjoa Haven", "Province": "Nunavut", "Longitude": -95.864103, "Latitude": 68.624654 }, "geometry": { "type": "Point", "coordinates": [ -95.864103, 68.624654, 0.0 ] } },
{ "type": "Feature", "properties": { "OBJECTID": 94, "POSUI": "NU-SAF", "Site_Name": "Pangnirtung", "Site_Type": "Scheduled Outreach", "Building": "Hamlet of Pangnirtung Office", "Address": " ", "City": "Pangnirtung", "Province": "Nunavut", "Longitude": -65.685446, "Latitude": 66.151934 }, "geometry": { "type": "Point", "coordinates": [ -65.685446, 66.151934, 0.0 ] } },
{ "type": "Feature", "properties": { "OBJECTID": 95, "POSUI": "NU-SAG", "Site_Name": "Kugaaruk", "Site_Type": "Scheduled Outreach", "Building": " ", "Address": "PO Box 205", "City": "Kugaaruk", "Province": "Nunavut", "Longitude": -89.827244, "Latitude": 68.531364 }, "geometry": { "type": "Point", "coordinates": [ -89.827244, 68.531364, 0.0 ] } },
{ "type": "Feature", "properties": { "OBJECTID": 96, "POSUI": "NU-SAH", "Site_Name": "Naujaat", "Site_Type": "Scheduled Outreach", "Building": " ", "Address": "Hamlet of Repulse Bay", "City": "Naujaat", "Province": "Nunavut", "Longitude": -86.238577, "Latitude": 66.524481 }, "geometry": { "type": "Point", "coordinates": [ -86.238577, 66.524481, 0.0 ] } },
{ "type": "Feature", "properties": { "OBJECTID": 97, "POSUI": "NU-SAI", "Site_Name": "Taloyoak", "Site_Type": "Scheduled Outreach", "Building": " ", "Address": "Hamlet of Taloyoak, Box 8", "City": "Taloyoak", "Province": "Nunavut", "Longitude": -93.530514, "Latitude": 69.537244 }, "geometry": { "type": "Point", "coordinates": [ -93.530514, 69.537244, 0.0 ] } },
{ "type": "Feature", "properties": { "OBJECTID": 98, "POSUI": "NU-SAJ", "Site_Name": "Whale Cove", "Site_Type": "Scheduled Outreach", "Building": " ", "Address": "Hamlet of Whale Cove", "City": "Whale Cove", "Province": "Nunavut", "Longitude": -92.581757, "Latitude": 62.173265 }, "geometry": { "type": "Point", "coordinates": [ -92.581757, 62.173265, 0.0 ] } },
{ "type": "Feature", "properties": { "OBJECTID": 99, "POSUI": "NU-SAK", "Site_Name": "Chesterfield Inlet", "Site_Type": "Scheduled Outreach", "Building": " ", "Address": "Hamlet of Chesterfield Inlet", "City": "Chesterfield Inlet", "Province": "Nunavut", "Longitude": -90.70022, "Latitude": 63.34077 }, "geometry": { "type": "Point", "coordinates": [ -90.70022, 63.34077, 0.0 ] } },
{ "type": "Feature", "properties": { "OBJECTID": 100, "POSUI": "NU-SAL", "Site_Name": "Arviat", "Site_Type": "Scheduled Outreach", "Building": " ", "Address": "Hamlet of Arviat", "City": "Arviat", "Province": "Nunavut", "Longitude": -94.067764, "Latitude": 61.110734 }, "geometry": { "type": "Point", "coordinates": [ -94.067764, 61.110734, 0.0 ] } },
{ "type": "Feature", "properties": { "OBJECTID": 101, "POSUI": "NU-SAM", "Site_Name": "Baker Lake", "Site_Type": "Scheduled Outreach", "Building": " ", "Address": "Hamlet of Baker Lake", "City": "Baker Lake", "Province": "Nunavut", "Longitude": -96.018907, "Latitude": 64.31844 }, "geometry": { "type": "Point", "coordinates": [ -96.018907, 64.31844, 0.0 ] } },
{ "type": "Feature", "properties": { "OBJECTID": 102, "POSUI": "NU-SAN", "Site_Name": "Igloolik", "Site_Type": "Scheduled Outreach", "Building": " ", "Address": "Hamlet Chamber Office", "City": "Igloolik", "Province": "Nunavut", "Longitude": -81.804707, "Latitude": 69.377872 }, "geometry": { "type": "Point", "coordinates": [ -81.804707, 69.377872, 0.0 ] } },
{ "type": "Feature", "properties": { "OBJECTID": 103, "POSUI": "NU-SAO", "Site_Name": "Pond Inlet", "Site_Type": "Scheduled Outreach", "Building": "Co-Op Store", "Address": "Boardroom", "City": "Pond Inlet", "Province": "Nunavut", "Longitude": -77.961932, "Latitude": 72.696034 }, "geometry": { "type": "Point", "coordinates": [ -77.961932, 72.696034, 0.0 ] } },
{ "type": "Feature", "properties": { "OBJECTID": 104, "POSUI": "NU-SAP", "Site_Name": "Kugluktuk", "Site_Type": "Scheduled Outreach", "Building": "Kugluktuk Hamlet Office", "Address": "PO Box 271", "City": "Kugluktuk", "Province": "Nunavut", "Longitude": -115.103056, "Latitude": 67.823455 }, "geometry": { "type": "Point", "coordinates": [ -115.103056, 67.823455, 0.0 ] } },
{ "type": "Feature", "properties": { "OBJECTID": 105, "POSUI": "ON-CAC", "Site_Name": "Deer Lake First Nations", "Site_Type": "Scheduled Outreach", "Building": "Deer Lake First Nation Band Office", "Address": " ", "City": "Deer Lake", "Province": "Ontario", "Longitude": -94.0486, "Latitude": 52.6193 }, "geometry": { "type": "Point", "coordinates": [ -94.0486, 52.6193, 0.0 ] } },
{ "type": "Feature", "properties": { "OBJECTID": 106, "POSUI": "ON-CAI", "Site_Name": "Kasabonika Lake First Nation", "Site_Type": "Scheduled Outreach", "Building": "Kasabonika First Nations Band Council", "Address": " ", "City": "Kasabonika", "Province": "Ontario", "Longitude": -88.6078, "Latitude": 53.5308 }, "geometry": { "type": "Point", "coordinates": [ -88.6078, 53.5308, 0.0 ] } },
{ "type": "Feature", "properties": { "OBJECTID": 107, "POSUI": "ON-CAL", "Site_Name": "Wapekeka First Nations", "Site_Type": "Scheduled Outreach", "Building": "Wapekeka First Nation Band Office", "Address": " ", "City": "Angling Lake", "Province": "Ontario", "Longitude": -89.53, "Latitude": 53.8447 }, "geometry": { "type": "Point", "coordinates": [ -89.53, 53.8447, 0.0 ] } },
{ "type": "Feature", "properties": { "OBJECTID": 108, "POSUI": "ON-CAO", "Site_Name": "Lac Seul First Nation", "Site_Type": "Scheduled Outreach", "Building": "Lac Seul First Nation Band Office", "Address": " ", "City": "Hudson", "Province": "Ontario", "Longitude": -92.3014, "Latitude": 50.2929 }, "geometry": { "type": "Point", "coordinates": [ -92.3014, 50.2929, 0.0 ] } },
{ "type": "Feature", "properties": { "OBJECTID": 109, "POSUI": "ON-CAS", "Site_Name": "Slate Falls First Nation", "Site_Type": "Scheduled Outreach", "Building": "Slate Falls First Nation Band Office", "Address": "48 Lakeview Drive", "City": "Slate Falls", "Province": "Ontario", "Longitude": -91.6178, "Latitude": 51.1497 }, "geometry": { "type": "Point", "coordinates": [ -91.6178, 51.1497, 0.0 ] } },
{ "type": "Feature", "properties": { "OBJECTID": 110, "POSUI": "ON-CAT", "Site_Name": "North Spirit Lake First Nation", "Site_Type": "Scheduled Outreach", "Building": "North Spirit Lake First Nation Band Office", "Address": " ", "City": "North Spirit Lake", "Province": "Ontario", "Longitude": -93.0237, "Latitude": 52.5069 }, "geometry": { "type": "Point", "coordinates": [ -93.0237, 52.5069, 0.0 ] } },
{ "type": "Feature", "properties": { "OBJECTID": 111, "POSUI": "ON-SAB", "Site_Name": "Alliston", "Site_Type": "Scheduled Outreach", "Building": "FOCUS Community Development Corporation", "Address": "46 Wellington Street West , Floor: Lower", "City": "Alliston", "Province": "Ontario", "Longitude": -79.8714, "Latitude": 44.1525 }, "geometry": { "type": "Point", "coordinates": [ -79.8714, 44.1525, 0.0 ] } },
{ "type": "Feature", "properties": { "OBJECTID": 112, "POSUI": "ON-SAC", "Site_Name": "Belle River", "Site_Type": "Scheduled Outreach", "Building": " ", "Address": "499 Notre Dame Street", "City": "Belle River", "Province": "Ontario", "Longitude": -82.70591, "Latitude": 42.29317 }, "geometry": { "type": "Point", "coordinates": [ -82.70591, 42.29317, 0.0 ] } },
{ "type": "Feature", "properties": { "OBJECTID": 113, "POSUI": "ON-SAK", "Site_Name": "Shelburne", "Site_Type": "Scheduled Outreach", "Building": "Mel Lloyd Centre - Entrance E", "Address": "167 Centre Street", "City": "Shelburne", "Province": "Ontario", "Longitude": -80.199623, "Latitude": 44.076603 }, "geometry": { "type": "Point", "coordinates": [ -80.199623, 44.076603, 0.0 ] } },
{ "type": "Feature", "properties": { "OBJECTID": 114, "POSUI": "ON-SAL", "Site_Name": "Exeter", "Site_Type": "Scheduled Outreach", "Building": " ", "Address": "349 Main Street South", "City": "Exeter", "Province": "Ontario", "Longitude": -81.4807, "Latitude": 43.3469 }, "geometry": { "type": "Point", "coordinates": [ -81.4807, 43.3469, 0.0 ] } },
{ "type": "Feature", "properties": { "OBJECTID": 115, "POSUI": "ON-SAP", "Site_Name": "Iroquois Falls", "Site_Type": "Scheduled Outreach", "Building": "ServiceOntario", "Address": "33 Ambridge Drive", "City": "Iroquois Falls", "Province": "Ontario", "Longitude": -80.68137, "Latitude": 48.759254 }, "geometry": { "type": "Point", "coordinates": [ -80.68137, 48.759254, 0.0 ] } },
{ "type": "Feature", "properties": { "OBJECTID": 116, "POSUI": "ON-SAU", "Site_Name": "Tilbury", "Site_Type": "Scheduled Outreach", "Building": "Tilbury Information and H.E.L.P. Centre", "Address": "20 Queen Street North", "City": "Tilbury", "Province": "Ontario", "Longitude": -82.431929, "Latitude": 42.259953 }, "geometry": { "type": "Point", "coordinates": [ -82.431929, 42.259953, 0.0 ] } },
{ "type": "Feature", "properties": { "OBJECTID": 117, "POSUI": "ON-SAV", "Site_Name": "Blind River", "Site_Type": "Scheduled Outreach", "Building": " ", "Address": "62 Queen Avenue", "City": "Blind River", "Province": "Ontario", "Longitude": -82.945572, "Latitude": 46.184892 }, "geometry": { "type": "Point", "coordinates": [ -82.945572, 46.184892, 0.0 ] } },
{ "type": "Feature", "properties": { "OBJECTID": 118, "POSUI": "ON-SAW", "Site_Name": "Haliburton", "Site_Type": "Scheduled Outreach", "Building": "Fleming College Employment Resource Centre", "Address": "49 Maple Avenue", "City": "Haliburton", "Province": "Ontario", "Longitude": -78.51008, "Latitude": 45.048546 }, "geometry": { "type": "Point", "coordinates": [ -78.51008, 45.048546, 0.0 ] } },
{ "type": "Feature", "properties": { "OBJECTID": 119, "POSUI": "ON-SAZ", "Site_Name": "Chapleau", "Site_Type": "Scheduled Outreach", "Building": "Sudbury Manitoulin District Social Services Administration Board Office", "Address": "12 Birch Street", "City": "Chapleau", "Province": "Ontario", "Longitude": -83.401112, "Latitude": 47.843613 }, "geometry": { "type": "Point", "coordinates": [ -83.401112, 47.843613, 0.0 ] } },
{ "type": "Feature", "properties": { "OBJECTID": 120, "POSUI": "ON-SBH", "Site_Name": "West Lorne", "Site_Type": "Scheduled Outreach", "Building": "West Elgin Community Services", "Address": "160 Main Street", "City": "West Lorne", "Province": "Ontario", "Longitude": -81.6062, "Latitude": 42.6039 }, "geometry": { "type": "Point", "coordinates": [ -81.6062, 42.6039, 0.0 ] } },
{ "type": "Feature", "properties": { "OBJECTID": 121, "POSUI": "ON-SBI", "Site_Name": "Terrace Bay", "Site_Type": "Scheduled Outreach", "Building": "Terrace Bay Community Centre", "Address": "Highway 17 and Selkirk Avenue", "City": "Terrace Bay", "Province": "Ontario", "Longitude": -87.103759, "Latitude": 48.782395 }, "geometry": { "type": "Point", "coordinates": [ -87.103759, 48.782395, 0.0 ] } },
{ "type": "Feature", "properties": { "OBJECTID": 122, "POSUI": "ON-SCF", "Site_Name": "Kemptville", "Site_Type": "Scheduled Outreach", "Building": "North Grenville Employment Resource Centre", "Address": "125 Prescott Street , Unit 3 & 4", "City": "Kemptville", "Province": "Ontario", "Longitude": -75.64484, "Latitude": 45.01563 }, "geometry": { "type": "Point", "coordinates": [ -75.64484, 45.01563, 0.0 ] } },
{ "type": "Feature", "properties": { "OBJECTID": 123, "POSUI": "ON-SCK", "Site_Name": "Caledon", "Site_Type": "Scheduled Outreach", "Building": "Caledon Community Services", "Address": "18 King Street East , Floor: Upper", "City": "Bolton", "Province": "Ontario", "Longitude": -79.7373, "Latitude": 43.8801 }, "geometry": { "type": "Point", "coordinates": [ -79.7373, 43.8801, 0.0 ] } },
{ "type": "Feature", "properties": { "OBJECTID": 124, "POSUI": "ON-SCR", "Site_Name": "Moose Factory", "Site_Type": "Scheduled Outreach", "Building": " ", "Address": "22 Jonathan Cheechoo Drive", "City": "Moose Factory", "Province": "Ontario", "Longitude": -80.59745, "Latitude": 51.2604 }, "geometry": { "type": "Point", "coordinates": [ -80.59745, 51.2604, 0.0 ] } },
{ "type": "Feature", "properties": { "OBJECTID": 125, "POSUI": "ON-SCS", "Site_Name": "Moosonee", "Site_Type": "Scheduled Outreach", "Building": " ", "Address": "34 Revillion Road North", "City": "Moosonee", "Province": "Ontario", "Longitude": -80.640049, "Latitude": 51.273089 }, "geometry": { "type": "Point", "coordinates": [ -80.640049, 51.273089, 0.0 ] } },
{ "type": "Feature", "properties": { "OBJECTID": 126, "POSUI": "ON-SCT", "Site_Name": "Aylmer", "Site_Type": "Scheduled Outreach", "Building": "Aylmer Community Services", "Address": "25 Centre Street", "City": "Aylmer", "Province": "Ontario", "Longitude": -80.984036, "Latitude": 42.772759 }, "geometry": { "type": "Point", "coordinates": [ -80.984036, 42.772759, 0.0 ] } },
{ "type": "Feature", "properties": { "OBJECTID": 127, "POSUI": "ON-SCU", "Site_Name": "Wiarton", "Site_Type": "Scheduled Outreach", "Building": " ", "Address": "315 George Street", "City": "Wiarton", "Province": "Ontario", "Longitude": -81.141246, "Latitude": 44.741755 }, "geometry": { "type": "Point", "coordinates": [ -81.141246, 44.741755, 0.0 ] } },
{ "type": "Feature", "properties": { "OBJECTID": 128, "POSUI": "ON-SCV", "Site_Name": "Strathroy", "Site_Type": "Scheduled Outreach", "Building": "Middlesex County Library - Strathroy Branch", "Address": "34 Frank Street", "City": "Strathroy", "Province": "Ontario", "Longitude": -81.62443, "Latitude": 42.95605 }, "geometry": { "type": "Point", "coordinates": [ -81.62443, 42.95605, 0.0 ] } },
{ "type": "Feature", "properties": { "OBJECTID": 129, "POSUI": "ON-SDC", "Site_Name": "Embrun", "Site_Type": "Scheduled Outreach", "Building": "La Cité Collégiale", "Address": "993 Notre Dame Street", "City": "Embrun", "Province": "Ontario", "Longitude": -75.2783, "Latitude": 45.2733 }, "geometry": { "type": "Point", "coordinates": [ -75.2783, 45.2733, 0.0 ] } },
{ "type": "Feature", "properties": { "OBJECTID": 130, "POSUI": "ON-SDH", "Site_Name": "Fort Albany", "Site_Type": "Scheduled Outreach", "Building": "Peetabeck Health Services", "Address": " ", "City": "Fort Albany", "Province": "Ontario", "Longitude": -81.684454, "Latitude": 52.207757 }, "geometry": { "type": "Point", "coordinates": [ -81.684454, 52.207757, 0.0 ] } },
{ "type": "Feature", "properties": { "OBJECTID": 131, "POSUI": "ON-SDI", "Site_Name": "Kashechewan", "Site_Type": "Scheduled Outreach", "Building": "Kashechewan First Nation Band Office", "Address": "13 B Riverside Road West", "City": "Kashechewan", "Province": "Ontario", "Longitude": -81.640903, "Latitude": 52.290203 }, "geometry": { "type": "Point", "coordinates": [ -81.640903, 52.290203, 0.0 ] } },
{ "type": "Feature", "properties": { "OBJECTID": 132, "POSUI": "ON-SDJ", "Site_Name": "Nipigon", "Site_Type": "Scheduled Outreach", "Building": "Ministry of Natural Resources", "Address": "5 Wadsworth Drive , Floor: 1", "City": "Nipigon", "Province": "Ontario", "Longitude": -88.268491, "Latitude": 49.005628 }, "geometry": { "type": "Point", "coordinates": [ -88.268491, 49.005628, 0.0 ] } },
{ "type": "Feature", "properties": { "OBJECTID": 133, "POSUI": "ON-SDL", "Site_Name": "Uxbridge", "Site_Type": "Scheduled Outreach", "Building": " ", "Address": "29 Toronto Street, Unit 2", "City": "Uxbridge", "Province": "Ontario", "Longitude": -79.122672, "Latitude": 44.107697 }, "geometry": { "type": "Point", "coordinates": [ -79.122672, 44.107697, 0.0 ] } },
{ "type": "Feature", "properties": { "OBJECTID": 134, "POSUI": "ON-SDM", "Site_Name": "Hearst", "Site_Type": "Scheduled Outreach", "Building": " ", "Address": "613 Front Street", "City": "Hearst", "Province": "Ontario", "Longitude": -83.65844, "Latitude": 49.68845 }, "geometry": { "type": "Point", "coordinates": [ -83.65844, 49.68845, 0.0 ] } },
{ "type": "Feature", "properties": { "OBJECTID": 135, "POSUI": "ON-SDN", "Site_Name": "Thessalon", "Site_Type": "Scheduled Outreach", "Building": "Seabrook Motors Inc.", "Address": "214 Main Street", "City": "Thessalon", "Province": "Ontario", "Longitude": -83.556249, "Latitude": 46.258021 }, "geometry": { "type": "Point", "coordinates": [ -83.556249, 46.258021, 0.0 ] } },
{ "type": "Feature", "properties": { "OBJECTID": 136, "POSUI": "ON-SDO", "Site_Name": "Fergus\/Elora", "Site_Type": "Scheduled Outreach", "Building": "Wellington County Public Library, Aboyne Branch", "Address": "552 Wellington County Road 18 West", "City": "Fergus", "Province": "Ontario", "Longitude": -80.398655, "Latitude": 43.693343 }, "geometry": { "type": "Point", "coordinates": [ -80.398655, 43.693343, 0.0 ] } },
{ "type": "Feature", "properties": { "OBJECTID": 137, "POSUI": "ON-SDQ", "Site_Name": "Mindemoya", "Site_Type": "Scheduled Outreach", "Building": "Township of Central Manitoulin", "Address": "6020 Highway 542", "City": "Mindemoya", "Province": "Ontario", "Longitude": -82.160709, "Latitude": 45.732763 }, "geometry": { "type": "Point", "coordinates": [ -82.160709, 45.732763, 0.0 ] } },
{ "type": "Feature", "properties": { "OBJECTID": 138, "POSUI": "ON-SDT", "Site_Name": "Wikwemikong", "Site_Type": "Scheduled Outreach", "Building": "Wikwemikong Unceded Reserve", "Address": "19A Complex Drive", "City": "Wikwemikong", "Province": "Ontario", "Longitude": -81.727983, "Latitude": 45.796857 }, "geometry": { "type": "Point", "coordinates": [ -81.727983, 45.796857, 0.0 ] } },
{ "type": "Feature", "properties": { "OBJECTID": 139, "POSUI": "ON-SDU", "Site_Name": "Attawapiskat", "Site_Type": "Scheduled Outreach", "Building": "Attawapiskat Development Corporation", "Address": "1001 Riverside Road West", "City": "Attawapiskat", "Province": "Ontario", "Longitude": -82.423773, "Latitude": 52.92352 }, "geometry": { "type": "Point", "coordinates": [ -82.423773, 52.92352, 0.0 ] } },
{ "type": "Feature", "properties": { "OBJECTID": 140, "POSUI": "ON-SDV", "Site_Name": "Atikokan", "Site_Type": "Scheduled Outreach", "Building": "Atikokan Employment Centre", "Address": "214 Main St. West , Unit 206", "City": "Atikokan", "Province": "Ontario", "Longitude": -91.624706, "Latitude": 48.757594 }, "geometry": { "type": "Point", "coordinates": [ -91.624706, 48.757594, 0.0 ] } },
{ "type": "Feature", "properties": { "OBJECTID": 141, "POSUI": "ON-SDW", "Site_Name": "Red Lake", "Site_Type": "Scheduled Outreach", "Building": "Ontario Government Building", "Address": "227 Howey Street", "City": "Red Lake", "Province": "Ontario", "Longitude": -93.829253, "Latitude": 51.017684 }, "geometry": { "type": "Point", "coordinates": [ -93.829253, 51.017684, 0.0 ] } },
{ "type": "Feature", "properties": { "OBJECTID": 142, "POSUI": "ON-SDX", "Site_Name": "Wawa", "Site_Type": "Scheduled Outreach", "Building": "Wawa Regional Employment Help Centre", "Address": "65 B Broadway Avenue", "City": "Wawa", "Province": "Ontario", "Longitude": -84.77068, "Latitude": 47.99449 }, "geometry": { "type": "Point", "coordinates": [ -84.77068, 47.99449, 0.0 ] } },
{ "type": "Feature", "properties": { "OBJECTID": 143, "POSUI": "ON-SDY", "Site_Name": "Cochrane", "Site_Type": "Scheduled Outreach", "Building": "ServiceOntario", "Address": "143 Fourth Avenue", "City": "Cochrane", "Province": "Ontario", "Longitude": -81.02821, "Latitude": 49.06248 }, "geometry": { "type": "Point", "coordinates": [ -81.02821, 49.06248, 0.0 ] } },
{ "type": "Feature", "properties": { "OBJECTID": 144, "POSUI": "ON-SEA", "Site_Name": "Gore Bay", "Site_Type": "Scheduled Outreach", "Building": "Service Ontario", "Address": "35 Merideth St.", "City": "Gore Bay", "Province": "Ontario", "Longitude": -82.464303, "Latitude": 45.91586 }, "geometry": { "type": "Point", "coordinates": [ -82.464303, 45.91586, 0.0 ] } },
{ "type": "Feature", "properties": { "OBJECTID": 145, "POSUI": "ON-SEB", "Site_Name": "Akwesasne", "Site_Type": "Scheduled Outreach", "Building": "CIA 111 Building", "Address": " ", "City": "Cornwall Island", "Province": "Ontario", "Longitude": -74.7398, "Latitude": 44.9998 }, "geometry": { "type": "Point", "coordinates": [ -74.7398, 44.9998, 0.0 ] } },
{ "type": "Feature", "properties": { "OBJECTID": 146, "POSUI": "ON-SEC", "Site_Name": "Huntsville", "Site_Type": "Scheduled Outreach", "Building": "ServiceOntario", "Address": "207 Main Street West", "City": "Huntsville", "Province": "Ontario", "Longitude": -79.239465, "Latitude": 45.316107 }, "geometry": { "type": "Point", "coordinates": [ -79.239465, 45.316107, 0.0 ] } },
{ "type": "Feature", "properties": { "OBJECTID": 147, "POSUI": "ON-SEF", "Site_Name": "Dokis", "Site_Type": "Scheduled Outreach", "Building": "Dokis Band Office", "Address": "940 Main Street", "City": "Dokis", "Province": "Ontario", "Longitude": -80.031969, "Latitude": 46.129457 }, "geometry": { "type": "Point", "coordinates": [ -80.031969, 46.129457, 0.0 ] } },
{ "type": "Feature", "properties": { "OBJECTID": 148, "POSUI": "ON-SEI", "Site_Name": "Dunnville", "Site_Type": "Scheduled Outreach", "Building": "St. Leonard's Community Services, Dunnville Employment Centre", "Address": "208 Broad Street East", "City": "Dunnville", "Province": "Ontario", "Longitude": -79.616235, "Latitude": 42.903462 }, "geometry": { "type": "Point", "coordinates": [ -79.616235, 42.903462, 0.0 ] } },
{ "type": "Feature", "properties": { "OBJECTID": 149, "POSUI": "ON-SEJ", "Site_Name": "Fort Erie", "Site_Type": "Scheduled Outreach", "Building": "Job Gym", "Address": "469 Central Avenue", "City": "Fort Erie", "Province": "Ontario", "Longitude": -78.920742, "Latitude": 42.924675 }, "geometry": { "type": "Point", "coordinates": [ -78.920742, 42.924675, 0.0 ] } },
{ "type": "Feature", "properties": { "OBJECTID": 150, "POSUI": "ON-SEK", "Site_Name": "Port Colborne", "Site_Type": "Scheduled Outreach", "Building": "Port Cares", "Address": "92 Charlotte Street", "City": "Port Colborne", "Province": "Ontario", "Longitude": -79.253001, "Latitude": 42.885011 }, "geometry": { "type": "Point", "coordinates": [ -79.253001, 42.885011, 0.0 ] } },
{ "type": "Feature", "properties": { "OBJECTID": 151, "POSUI": "ON-SEL", "Site_Name": "Dundas", "Site_Type": "Scheduled Outreach", "Building": "Old Town Hall and Chambers Quarters", "Address": "60 Main Street , Floor: Main", "City": "Dundas", "Province": "Ontario", "Longitude": -79.952639, "Latitude": 43.263906 }, "geometry": { "type": "Point", "coordinates": [ -79.952639, 43.263906, 0.0 ] } },
{ "type": "Feature", "properties": { "OBJECTID": 152, "POSUI": "ON-SEM", "Site_Name": "Flamborough", "Site_Type": "Scheduled Outreach", "Building": " ", "Address": "163 Dundas Street East", "City": "Flamborough", "Province": "Ontario", "Longitude": -79.9049645, "Latitude": 43.323792290000029 }, "geometry": { "type": "Point", "coordinates": [ -79.904964499999949, 43.323792290000029, 0.0 ] } },
{ "type": "Feature", "properties": { "OBJECTID": 153, "POSUI": "ON-SEQ", "Site_Name": "Bearskin Lake First Nation", "Site_Type": "Scheduled Outreach", "Building": "Bearskin Lake Band Office", "Address": " ", "City": "Bearskin Lake", "Province": "Ontario", "Longitude": -90.9676, "Latitude": 53.9248 }, "geometry": { "type": "Point", "coordinates": [ -90.9676, 53.9248, 0.0 ] } },
{ "type": "Feature", "properties": { "OBJECTID": 154, "POSUI": "ON-SER", "Site_Name": "Cat Lake First Nation", "Site_Type": "Scheduled Outreach", "Building": "Cat Lake First Nation Band Office", "Address": " ", "City": "Cat Lake", "Province": "Ontario", "Longitude": -91.8203, "Latitude": 51.72 }, "geometry": { "type": "Point", "coordinates": [ -91.8203, 51.72, 0.0 ] } },
{ "type": "Feature", "properties": { "OBJECTID": 155, "POSUI": "ON-SES", "Site_Name": "Keewaywin First Nations", "Site_Type": "Scheduled Outreach", "Building": "Keewaywin First Nation Band Office", "Address": " ", "City": "Keewaydin", "Province": "Ontario", "Longitude": -92.7992, "Latitude": 53.0042 }, "geometry": { "type": "Point", "coordinates": [ -92.7992, 53.0042, 0.0 ] } },
{ "type": "Feature", "properties": { "OBJECTID": 156, "POSUI": "ON-SEU", "Site_Name": "Mishkeegogamang First Nation", "Site_Type": "Scheduled Outreach", "Building": "Mishkeegogamang First Nation Band Office", "Address": " ", "City": "New Osnaburgh", "Province": "Ontario", "Longitude": -90.2387, "Latitude": 51.2346 }, "geometry": { "type": "Point", "coordinates": [ -90.2387, 51.2346, 0.0 ] } },
{ "type": "Feature", "properties": { "OBJECTID": 157, "POSUI": "ON-SEV", "Site_Name": "Lansdowne House First Nation", "Site_Type": "Scheduled Outreach", "Building": "Lansdowne House First Nation Band Office", "Address": " ", "City": "Lansdowne House", "Province": "Ontario", "Longitude": -87.8912, "Latitude": 52.2195 }, "geometry": { "type": "Point", "coordinates": [ -87.8912, 52.2195, 0.0 ] } },
{ "type": "Feature", "properties": { "OBJECTID": 158, "POSUI": "ON-SEW", "Site_Name": "Summer Beaver First Nation", "Site_Type": "Scheduled Outreach", "Building": "Summer Beaver First Nation Band Office", "Address": " ", "City": "Summer Beaver", "Province": "Ontario", "Longitude": -88.5139, "Latitude": 52.7458 }, "geometry": { "type": "Point", "coordinates": [ -88.5139, 52.7458, 0.0 ] } },
{ "type": "Feature", "properties": { "OBJECTID": 159, "POSUI": "ON-SEY", "Site_Name": "Webequie First Nation", "Site_Type": "Scheduled Outreach", "Building": "Webequie First Nation Band Council", "Address": " ", "City": "Webequie", "Province": "Ontario", "Longitude": -87.3595, "Latitude": 52.9845 }, "geometry": { "type": "Point", "coordinates": [ -87.3595, 52.9845, 0.0 ] } },
{ "type": "Feature", "properties": { "OBJECTID": 160, "POSUI": "ON-SEZ", "Site_Name": "Amherstburg", "Site_Type": "Scheduled Outreach", "Building": " ", "Address": "179 Victoria Steet South", "City": "Amherstburg", "Province": "Ontario", "Longitude": -83.10033, "Latitude": 42.10444 }, "geometry": { "type": "Point", "coordinates": [ -83.10033, 42.10444, 0.0 ] } },
{ "type": "Feature", "properties": { "OBJECTID": 161, "POSUI": "ON-SFA", "Site_Name": "Seaforth", "Site_Type": "Scheduled Outreach", "Building": "Huron Business Centre", "Address": "138 Main Street South", "City": "Seaforth", "Province": "Ontario", "Longitude": -81.3965, "Latitude": 43.5495 }, "geometry": { "type": "Point", "coordinates": [ -81.3965, 43.5495, 0.0 ] } },
{ "type": "Feature", "properties": { "OBJECTID": 162, "POSUI": "ON-SFB", "Site_Name": "Wingham", "Site_Type": "Scheduled Outreach", "Building": "Centre of Employment & Learning", "Address": "152 Josephine Street", "City": "Wingham", "Province": "Ontario", "Longitude": -81.313409, "Latitude": 43.885399 }, "geometry": { "type": "Point", "coordinates": [ -81.313409, 43.885399, 0.0 ] } },
{ "type": "Feature", "properties": { "OBJECTID": 163, "POSUI": "ON-SFC", "Site_Name": "Wasaga Beach", "Site_Type": "Scheduled Outreach", "Building": "Wasaga Beach Municipal Building", "Address": "30 Lewis Street", "City": "Wasaga Beach", "Province": "Ontario", "Longitude": -80.016421, "Latitude": 44.520764 }, "geometry": { "type": "Point", "coordinates": [ -80.016421, 44.520764, 0.0 ] } },
{ "type": "Feature", "properties": { "OBJECTID": 164, "POSUI": "ON-SFF", "Site_Name": "Kettle and Stony Point First Nation", "Site_Type": "Scheduled Outreach", "Building": "Kettle and Stony Point First Nation", "Address": "6247 Indian Lane, Rural Route 2", "City": "Forest", "Province": "Ontario", "Longitude": -81.997589, "Latitude": 43.178243 }, "geometry": { "type": "Point", "coordinates": [ -81.997589, 43.178243, 0.0 ] } },
{ "type": "Feature", "properties": { "OBJECTID": 165, "POSUI": "ON-SFH", "Site_Name": "Oneida First Nations", "Site_Type": "Scheduled Outreach", "Building": "Oneida First Nation Administrative Building", "Address": "Rural Route 2", "City": "Southwold", "Province": "Ontario", "Longitude": -81.400486, "Latitude": 42.807883 }, "geometry": { "type": "Point", "coordinates": [ -81.400486, 42.807883, 0.0 ] } },
{ "type": "Feature", "properties": { "OBJECTID": 166, "POSUI": "ON-SFN", "Site_Name": "Hamilton City Hall", "Site_Type": "Scheduled Outreach", "Building": "Hamilton City Hall", "Address": "71 Main Street West , Floor: 1", "City": "Hamilton", "Province": "Ontario", "Longitude": -79.873059, "Latitude": 43.255691 }, "geometry": { "type": "Point", "coordinates": [ -79.873059, 43.255691, 0.0 ] } },
{ "type": "Feature", "properties": { "OBJECTID": 167, "POSUI": "ON-SFQ", "Site_Name": "Grimsby", "Site_Type": "Scheduled Outreach", "Building": "Employment Help Centre, Village Inn Centre", "Address": "63 Main Street West", "City": "Grimsby", "Province": "Ontario", "Longitude": -79.56383, "Latitude": 43.19382 }, "geometry": { "type": "Point", "coordinates": [ -79.56383, 43.19382, 0.0 ] } },
{ "type": "Feature", "properties": { "OBJECTID": 168, "POSUI": "ON-SFR", "Site_Name": "Big Trout Lake", "Site_Type": "Scheduled Outreach", "Building": "Big Trout Lake Band Council Office", "Address": " ", "City": "Big Trout Lake", "Province": "Ontario", "Longitude": -89.8776, "Latitude": 53.8246 }, "geometry": { "type": "Point", "coordinates": [ -89.8776, 53.8246, 0.0 ] } },
{ "type": "Feature", "properties": { "OBJECTID": 169, "POSUI": "ON-SFS", "Site_Name": "Sandy Lake First Nation", "Site_Type": "Scheduled Outreach", "Building": "Sandy Lake Band Council Office", "Address": " ", "City": "Sandy Lake", "Province": "Ontario", "Longitude": -93.3248, "Latitude": 53.0563 }, "geometry": { "type": "Point", "coordinates": [ -93.3248, 53.0563, 0.0 ] } },
{ "type": "Feature", "properties": { "OBJECTID": 170, "POSUI": "ON-SFT", "Site_Name": "Sioux Lookout Area Aboriginal Management Board", "Site_Type": "Scheduled Outreach", "Building": " ", "Address": "80 Front Street", "City": "Sioux Lookout", "Province": "Ontario", "Longitude": -91.921, "Latitude": 50.098 }, "geometry": { "type": "Point", "coordinates": [ -91.921, 50.098, 0.0 ] } },
{ "type": "Feature", "properties": { "OBJECTID": 171, "POSUI": "ON-SFU", "Site_Name": "Fort Hope (Eabametoong)", "Site_Type": "Scheduled Outreach", "Building": "Fort Hope Band Council Office", "Address": " ", "City": "Fort Hope", "Province": "Ontario", "Longitude": -87.9016, "Latitude": 51.5571 }, "geometry": { "type": "Point", "coordinates": [ -87.9016, 51.5571, 0.0 ] } },
{ "type": "Feature", "properties": { "OBJECTID": 172, "POSUI": "ON-SFV", "Site_Name": "Fort Severn First Nation", "Site_Type": "Scheduled Outreach", "Building": "Fort Severn Band Council Office", "Address": " ", "City": "Fort Severn", "Province": "Ontario", "Longitude": -87.6333, "Latitude": 55.9833 }, "geometry": { "type": "Point", "coordinates": [ -87.6333, 55.9833, 0.0 ] } },
{ "type": "Feature", "properties": { "OBJECTID": 173, "POSUI": "ON-SFW", "Site_Name": "Kingfisher Lake First Nation", "Site_Type": "Scheduled Outreach", "Building": "Kingfisher Lake Band Council Office", "Address": " ", "City": "Kingfisher Lake", "Province": "Ontario", "Longitude": -89.8168, "Latitude": 53.0316 }, "geometry": { "type": "Point", "coordinates": [ -89.8168, 53.0316, 0.0 ] } },
{ "type": "Feature", "properties": { "OBJECTID": 174, "POSUI": "ON-SFX", "Site_Name": "Muskrat Dam First Nation", "Site_Type": "Scheduled Outreach", "Building": "Muskrat Dam Band Council Office", "Address": " ", "City": "Muskrat Dam", "Province": "Ontario", "Longitude": -91.7813, "Latitude": 53.4041 }, "geometry": { "type": "Point", "coordinates": [ -91.7813, 53.4041, 0.0 ] } },
{ "type": "Feature", "properties": { "OBJECTID": 175, "POSUI": "ON-SFY", "Site_Name": "North Caribou Lake First Nation", "Site_Type": "Scheduled Outreach", "Building": "North Caribou Lake Band Council Office", "Address": " ", "City": "Weagamow Lake", "Province": "Ontario", "Longitude": -91.344, "Latitude": 52.9488 }, "geometry": { "type": "Point", "coordinates": [ -91.344, 52.9488, 0.0 ] } },
{ "type": "Feature", "properties": { "OBJECTID": 176, "POSUI": "ON-SFZ", "Site_Name": "Pikangikum First Nation", "Site_Type": "Scheduled Outreach", "Building": "Pikangikum Band Council Office", "Address": " ", "City": "Pikangikum", "Province": "Ontario", "Longitude": -93.9892, "Latitude": 51.8036 }, "geometry": { "type": "Point", "coordinates": [ -93.9892, 51.8036, 0.0 ] } },
{ "type": "Feature", "properties": { "OBJECTID": 177, "POSUI": "ON-SGA", "Site_Name": "Poplar Hill First Nation", "Site_Type": "Scheduled Outreach", "Building": "Poplar Hill Band Council Office", "Address": " ", "City": "Poplar Hill", "Province": "Ontario", "Longitude": -94.302375, "Latitude": 52.098872 }, "geometry": { "type": "Point", "coordinates": [ -94.302375, 52.098872, 0.0 ] } },
{ "type": "Feature", "properties": { "OBJECTID": 178, "POSUI": "ON-SGB", "Site_Name": "Sachigo Lake First Nation", "Site_Type": "Scheduled Outreach", "Building": "Sachigo Band Council Office", "Address": " ", "City": "Sachigo Lake", "Province": "Ontario", "Longitude": -92.1756, "Latitude": 53.8687 }, "geometry": { "type": "Point", "coordinates": [ -92.1756, 53.8687, 0.0 ] } },
{ "type": "Feature", "properties": { "OBJECTID": 179, "POSUI": "ON-SGC", "Site_Name": "Wunnumin Lake First Nation", "Site_Type": "Scheduled Outreach", "Building": "Wunnumin Lake First Nation Band Council Office", "Address": " ", "City": "Wunnumin Lake", "Province": "Ontario", "Longitude": -89.3, "Latitude": 52.9333 }, "geometry": { "type": "Point", "coordinates": [ -89.3, 52.9333, 0.0 ] } },
{ "type": "Feature", "properties": { "OBJECTID": 180, "POSUI": "ON-SGF", "Site_Name": "Sturgeon Falls", "Site_Type": "Scheduled Outreach", "Building": " ", "Address": "186 Main Street , Floor: 2", "City": "Sturgeon Falls", "Province": "Ontario", "Longitude": -79.92808, "Latitude": 46.36838 }, "geometry": { "type": "Point", "coordinates": [ -79.92808, 46.36838, 0.0 ] } },
{ "type": "Feature", "properties": { "OBJECTID": 181, "POSUI": "PE-SAA", "Site_Name": "Wellington", "Site_Type": "Scheduled Outreach", "Building": " ", "Address": "48 Mill Road", "City": "Wellington", "Province": "Prince Edward Island", "Longitude": -63.999837, "Latitude": 46.453499 }, "geometry": { "type": "Point", "coordinates": [ -63.999837, 46.453499, 0.0 ] } },
{ "type": "Feature", "properties": { "OBJECTID": 182, "POSUI": "QC-SAB", "Site_Name": "Anse Saint-Jean", "Site_Type": "Scheduled Outreach", "Building": "La Petite École Community Centre", "Address": "239 St-Jean-Baptiste Street", "City": "L'Anse-Saint-Jean", "Province": "Québec", "Longitude": -70.210283, "Latitude": 48.230935 }, "geometry": { "type": "Point", "coordinates": [ -70.210283, 48.230935, 0.0 ] } },
{ "type": "Feature", "properties": { "OBJECTID": 183, "POSUI": "QC-SAP", "Site_Name": "Lebel-sur-Quévillon", "Site_Type": "Scheduled Outreach", "Building": " ", "Address": "107 Principale Street South", "City": "Lebel-sur-Quévillon", "Province": "Québec", "Longitude": -76.9786, "Latitude": 49.0518 }, "geometry": { "type": "Point", "coordinates": [ -76.9786, 49.0518, 0.0 ] } },
{ "type": "Feature", "properties": { "OBJECTID": 184, "POSUI": "QC-SBC", "Site_Name": "Matapedia", "Site_Type": "Scheduled Outreach", "Building": "Municipality of Matapédia", "Address": "8 MacDonell Street", "City": "Matapédia", "Province": "Québec", "Longitude": -66.94086, "Latitude": 47.97504 }, "geometry": { "type": "Point", "coordinates": [ -66.94086, 47.97504, 0.0 ] } },
{ "type": "Feature", "properties": { "OBJECTID": 185, "POSUI": "QC-SBM", "Site_Name": "Temiscaming", "Site_Type": "Scheduled Outreach", "Building": "Le Centre", "Address": "20 Humphrey Street", "City": "Témiscaming", "Province": "Québec", "Longitude": -79.093844, "Latitude": 46.720968 }, "geometry": { "type": "Point", "coordinates": [ -79.093844, 46.720968, 0.0 ] } },
{ "type": "Feature", "properties": { "OBJECTID": 186, "POSUI": "QC-SBQ", "Site_Name": "Matagami", "Site_Type": "Scheduled Outreach", "Building": " ", "Address": "180 du Commerce Place", "City": "Matagami", "Province": "Québec", "Longitude": -77.623157, "Latitude": 49.758495 }, "geometry": { "type": "Point", "coordinates": [ -77.623157, 49.758495, 0.0 ] } },
{ "type": "Feature", "properties": { "OBJECTID": 187, "POSUI": "QC-SBR", "Site_Name": "Baie St- Paul", "Site_Type": "Scheduled Outreach", "Building": "René-Richard Library", "Address": "9 Forget Street", "City": "Baie-Saint-Paul", "Province": "Québec", "Longitude": -70.507899, "Latitude": 47.440706 }, "geometry": { "type": "Point", "coordinates": [ -70.507899, 47.440706, 0.0 ] } },
{ "type": "Feature", "properties": { "OBJECTID": 188, "POSUI": "QC-SBU", "Site_Name": "Grande-Vallee", "Site_Type": "Scheduled Outreach", "Building": " ", "Address": "1 du Vieux Pont Street", "City": "Grande-Vallée", "Province": "Québec", "Longitude": -65.124806, "Latitude": 49.22565 }, "geometry": { "type": "Point", "coordinates": [ -65.124806, 49.22565, 0.0 ] } },
{ "type": "Feature", "properties": { "OBJECTID": 189, "POSUI": "QC-SCB", "Site_Name": "Saint-Michel-des-Saints", "Site_Type": "Scheduled Outreach", "Building": " ", "Address": "521 Brassard Street", "City": "Saint-Michel-des-Saints", "Province": "Québec", "Longitude": -73.917315, "Latitude": 46.677795 }, "geometry": { "type": "Point", "coordinates": [ -73.917315, 46.677795, 0.0 ] } },
{ "type": "Feature", "properties": { "OBJECTID": 190, "POSUI": "QC-SCF", "Site_Name": "Notre-Dame-du-Laus", "Site_Type": "Scheduled Outreach", "Building": "Municipal Library", "Address": "4 de l'Église Street", "City": "Notre-Dame-du-Laus", "Province": "Québec", "Longitude": -75.621882, "Latitude": 46.088431 }, "geometry": { "type": "Point", "coordinates": [ -75.621882, 46.088431, 0.0 ] } },
{ "type": "Feature", "properties": { "OBJECTID": 191, "POSUI": "QC-SCH", "Site_Name": "Cheneville", "Site_Type": "Scheduled Outreach", "Building": " ", "Address": "77 Hôtel de ville Street", "City": "Chénéville", "Province": "Québec", "Longitude": -75.055232, "Latitude": 45.882112 }, "geometry": { "type": "Point", "coordinates": [ -75.055232, 45.882112, 0.0 ] } },
{ "type": "Feature", "properties": { "OBJECTID": 192, "POSUI": "QC-SCI", "Site_Name": "Riviere-Rouge", "Site_Type": "Scheduled Outreach", "Building": "Municipal Library", "Address": "230 de L'Annonciation Street South", "City": "Rivière-Rouge", "Province": "Québec", "Longitude": -74.86977, "Latitude": 46.408027 }, "geometry": { "type": "Point", "coordinates": [ -74.86977, 46.408027, 0.0 ] } },
{ "type": "Feature", "properties": { "OBJECTID": 193, "POSUI": "QC-SCJ", "Site_Name": "Grande Entrée", "Site_Type": "Scheduled Outreach", "Building": "Auberge La Salicorne", "Address": "377 Highway 199", "City": "Grande-Entrée", "Province": "Québec", "Longitude": -61.522858, "Latitude": 47.558066 }, "geometry": { "type": "Point", "coordinates": [ -61.522858, 47.558066, 0.0 ] } },
{ "type": "Feature", "properties": { "OBJECTID": 194, "POSUI": "QC-SCT", "Site_Name": "Pohenegamook", "Site_Type": "Scheduled Outreach", "Building": " ", "Address": "1309 Principale Street", "City": "Pohénégamook", "Province": "Québec", "Longitude": -69.282077, "Latitude": 47.487991 }, "geometry": { "type": "Point", "coordinates": [ -69.282077, 47.487991, 0.0 ] } },
{ "type": "Feature", "properties": { "OBJECTID": 195, "POSUI": "QC-SCX", "Site_Name": "Lachute", "Site_Type": "Scheduled Outreach", "Building": " ", "Address": "505 Béthany Avenue", "City": "Lachute", "Province": "Québec", "Longitude": -74.325964, "Latitude": 45.63861 }, "geometry": { "type": "Point", "coordinates": [ -74.325964, 45.63861, 0.0 ] } },
{ "type": "Feature", "properties": { "OBJECTID": 196, "POSUI": "QC-SCY", "Site_Name": "Normandin", "Site_Type": "Scheduled Outreach", "Building": "Town Hall", "Address": "1048 Saint-Cyrille Street", "City": "Normandin", "Province": "Québec", "Longitude": -72.52862, "Latitude": 48.83604 }, "geometry": { "type": "Point", "coordinates": [ -72.52862, 48.83604, 0.0 ] } },
{ "type": "Feature", "properties": { "OBJECTID": 197, "POSUI": "QC-SCZ", "Site_Name": "Port-Cartier", "Site_Type": "Scheduled Outreach", "Building": " ", "Address": "Popco, 4 C Island Boulevard", "City": "Port-Cartier", "Province": "Québec", "Longitude": -66.878734, "Latitude": 50.020573 }, "geometry": { "type": "Point", "coordinates": [ -66.878734, 50.020573, 0.0 ] } },
{ "type": "Feature", "properties": { "OBJECTID": 199, "POSUI": "QC-SDB", "Site_Name": "Sacré-Coeur", "Site_Type": "Scheduled Outreach", "Building": " ", "Address": "64 Principale Street North, Unit A", "City": "Sacré-Coeur", "Province": "Québec", "Longitude": -69.80069, "Latitude": 48.23111 }, "geometry": { "type": "Point", "coordinates": [ -69.80069, 48.23111, 0.0 ] } },
{ "type": "Feature", "properties": { "OBJECTID": 200, "POSUI": "SK-SAM", "Site_Name": "Davidson", "Site_Type": "Scheduled Outreach", "Building": " ", "Address": "206 Washington Street", "City": "Davidson", "Province": "Saskatchewan", "Longitude": -105.987081, "Latitude": 51.2641 }, "geometry": { "type": "Point", "coordinates": [ -105.987081, 51.2641, 0.0 ] } },
{ "type": "Feature", "properties": { "OBJECTID": 201, "POSUI": "SK-SAO", "Site_Name": "Kindersley", "Site_Type": "Scheduled Outreach", "Building": " ", "Address": "125 1st Avenue East", "City": "Kindersley", "Province": "Saskatchewan", "Longitude": -109.15154, "Latitude": 51.46742 }, "geometry": { "type": "Point", "coordinates": [ -109.15154, 51.46742, 0.0 ] } },
{ "type": "Feature", "properties": { "OBJECTID": 202, "POSUI": "SK-SAP", "Site_Name": "Preeceville", "Site_Type": "Scheduled Outreach", "Building": " ", "Address": "27 Main Street North", "City": "Preeceville", "Province": "Saskatchewan", "Longitude": -102.670982, "Latitude": 51.956712 }, "geometry": { "type": "Point", "coordinates": [ -102.670982, 51.956712, 0.0 ] } },
{ "type": "Feature", "properties": { "OBJECTID": 203, "POSUI": "SK-SAQ", "Site_Name": "Gravelbourg", "Site_Type": "Scheduled Outreach", "Building": " ", "Address": "133 5th Avenue East", "City": "Gravelbourg", "Province": "Saskatchewan", "Longitude": -106.554943, "Latitude": 49.876846 }, "geometry": { "type": "Point", "coordinates": [ -106.554943, 49.876846, 0.0 ] } },
{ "type": "Feature", "properties": { "OBJECTID": 204, "POSUI": "SK-SAR", "Site_Name": "Hudson Bay", "Site_Type": "Scheduled Outreach", "Building": " ", "Address": "501 Prince Street", "City": "Hudson Bay", "Province": "Saskatchewan", "Longitude": -102.388441, "Latitude": 52.856516 }, "geometry": { "type": "Point", "coordinates": [ -102.388441, 52.856516, 0.0 ] } },
{ "type": "Feature", "properties": { "OBJECTID": 205, "POSUI": "SK-SAT", "Site_Name": "Stony Rapids", "Site_Type": "Scheduled Outreach", "Building": "Stony Rapids School", "Address": "Johnson Street", "City": "Stony Rapids", "Province": "Saskatchewan", "Longitude": -105.832484, "Latitude": 59.256983260000027 }, "geometry": { "type": "Point", "coordinates": [ -105.832484, 59.256983260000027, 0.0 ] } },
{ "type": "Feature", "properties": { "OBJECTID": 206, "POSUI": "SK-SAU", "Site_Name": "Humboldt", "Site_Type": "Scheduled Outreach", "Building": "Chamney Platz Building", "Address": "517 Main Street", "City": "Humboldt", "Province": "Saskatchewan", "Longitude": -105.123195, "Latitude": 52.198253, "Last_Update": "2016\/10\/04 00:00:00" }, "geometry": { "type": "Point", "coordinates": [ -105.123195, 52.198253240000042, 0.0 ] } },
{ "type": "Feature", "properties": { "OBJECTID": 207, "POSUI": "SK-SAV", "Site_Name": "Fond-du-Lac", "Site_Type": "Scheduled Outreach", "Building": "Fond-du-Lac First Nation Band Office", "Address": " ", "City": "Fond-du-Lac", "Province": "Saskatchewan", "Longitude": -107.197109, "Latitude": 59.318872 }, "geometry": { "type": "Point", "coordinates": [ -107.197109, 59.318872, 0.0 ] } },
{ "type": "Feature", "properties": { "OBJECTID": 208, "POSUI": "SK-SAW", "Site_Name": "Wollaston Lake", "Site_Type": "Scheduled Outreach", "Building": "Economic Development Office", "Address": " ", "City": "Wollaston Lake", "Province": "Saskatchewan", "Longitude": -103.159126, "Latitude": 58.112539 }, "geometry": { "type": "Point", "coordinates": [ -103.159126, 58.112539, 0.0 ] } },
{ "type": "Feature", "properties": { "OBJECTID": 209, "POSUI": "SK-SAY", "Site_Name": "Zenon Park", "Site_Type": "Scheduled Outreach", "Building": "Zenon Park Fransaskoise Association", "Address": "755 Main Street", "City": "Zenon Park", "Province": "Saskatchewan", "Longitude": -103.805309, "Latitude": 53.192635 }, "geometry": { "type": "Point", "coordinates": [ -103.805309, 53.192635, 0.0 ] } },
{ "type": "Feature", "properties": { "OBJECTID": 210, "POSUI": "SK-SBA", "Site_Name": "Shaunavon", "Site_Type": "Scheduled Outreach", "Building": " ", "Address": "109 3rd Avenue West", "City": "Shaunavon", "Province": "Saskatchewan", "Longitude": -108.409641, "Latitude": 49.64583985, "Last_Update": "2017\/04\/24 00:00:00" }, "geometry": { "type": "Point", "coordinates": [ -108.409641, 49.645839850000073, 0.0 ] } },
{ "type": "Feature", "properties": { "OBJECTID": 211, "POSUI": "SK-SBB", "Site_Name": "Regina North Central", "Site_Type": "Scheduled Outreach", "Building": " ", "Address": "3115 5th Avenue", "City": "Regina", "Province": "Saskatchewan", "Longitude": -104.625562, "Latitude": 50.461302 }, "geometry": { "type": "Point", "coordinates": [ -104.625562, 50.461302, 0.0 ] } },
{ "type": "Feature", "properties": { "OBJECTID": 212, "POSUI": "SK-SBC", "Site_Name": "Maple Creek", "Site_Type": "Scheduled Outreach", "Building": " ", "Address": "114 Jasper Street", "City": "Maple Creek", "Province": "Saskatchewan", "Longitude": -109.479354, "Latitude": 49.907789 }, "geometry": { "type": "Point", "coordinates": [ -109.479354, 49.907789, 0.0 ] } },
{ "type": "Feature", "properties": { "OBJECTID": 213, "POSUI": "SK-SBD", "Site_Name": "Assiniboia", "Site_Type": "Scheduled Outreach", "Building": " ", "Address": "313 Centre Street", "City": "Assiniboia", "Province": "Saskatchewan", "Longitude": -105.99205, "Latitude": 49.63149 }, "geometry": { "type": "Point", "coordinates": [ -105.99205, 49.63149, 0.0 ] } },
{ "type": "Feature", "properties": { "OBJECTID": 214, "POSUI": "SK-SBE", "Site_Name": "Nipawin", "Site_Type": "Scheduled Outreach", "Building": "Business Centre", "Address": "233 Centre Street", "City": "Nipawin", "Province": "Saskatchewan", "Longitude": -104.015245, "Latitude": 53.36161 }, "geometry": { "type": "Point", "coordinates": [ -104.015245, 53.36161, 0.0 ] } },
{ "type": "Feature", "properties": { "OBJECTID": 215, "POSUI": "SK-SBF", "Site_Name": "Meadow Lake", "Site_Type": "Scheduled Outreach", "Building": "Meadow Lake Tribal Council Main Office", "Address": "8155 Flying Dust First Nation", "City": "Meadow Lake", "Province": "Saskatchewan", "Longitude": -108.402674, "Latitude": 54.135609 }, "geometry": { "type": "Point", "coordinates": [ -108.402674, 54.135609, 0.0 ] } },
{ "type": "Feature", "properties": { "OBJECTID": 216, "POSUI": "SK-SBG", "Site_Name": "Wynyard", "Site_Type": "Scheduled Outreach", "Building": "Council Chambers", "Address": "435 Bosworth Street", "City": "Wynyard", "Province": "Saskatchewan", "Longitude": -104.186364, "Latitude": 51.766578350000032 }, "geometry": { "type": "Point", "coordinates": [ -104.186364, 51.766578350000032, 0.0 ] } },
{ "type": "Feature", "properties": { "OBJECTID": 217, "POSUI": "SK-SBH", "Site_Name": "Carlyle", "Site_Type": "Scheduled Outreach", "Building": " ", "Address": "100 Main Street", "City": "Carlyle", "Province": "Saskatchewan", "Longitude": -102.266493, "Latitude": 49.635313 }, "geometry": { "type": "Point", "coordinates": [ -102.266493, 49.635313, 0.0 ] } },
{ "type": "Feature", "properties": { "OBJECTID": 218, "POSUI": "SK-SBK", "Site_Name": "Ponteix", "Site_Type": "Scheduled Outreach", "Building": "Royer Cultural Centre", "Address": "110 Railway Avenue", "City": "Ponteix", "Province": "Saskatchewan", "Longitude": -107.487547, "Latitude": 49.747431 }, "geometry": { "type": "Point", "coordinates": [ -107.487547, 49.747431, 0.0 ] } },
{ "type": "Feature", "properties": { "OBJECTID": 219, "POSUI": "SK-SBM", "Site_Name": "Black Lake", "Site_Type": "Scheduled Outreach", "Building": "Black Lake First Nation Band Office", "Address": " ", "City": "Black Lake", "Province": "Saskatchewan", "Longitude": -105.600625, "Latitude": 59.139164 }, "geometry": { "type": "Point", "coordinates": [ -105.600625, 59.139164, 0.0 ] } },
{ "type": "Feature", "properties": { "OBJECTID": 220, "POSUI": "SK-SBO", "Site_Name": "Uranium City", "Site_Type": "Scheduled Outreach", "Building": "Northern Settlement of Uranium City Office", "Address": "205 Fredette Road", "City": "Uranium City", "Province": "Saskatchewan", "Longitude": -108.610557, "Latitude": 59.570062 }, "geometry": { "type": "Point", "coordinates": [ -108.610557, 59.570062, 0.0 ] } },
{ "type": "Feature", "properties": { "OBJECTID": 221, "POSUI": "SK-SBP", "Site_Name": "Île-à-la-Crosse", "Site_Type": "Scheduled Outreach", "Building": "Integrated Facility", "Address": "Lajeunesse Avenue", "City": "Île-à-la-Crosse", "Province": "Saskatchewan", "Longitude": -107.899913, "Latitude": 55.444759 }, "geometry": { "type": "Point", "coordinates": [ -107.899913, 55.444759, 0.0 ] } },
{ "type": "Feature", "properties": { "OBJECTID": 222, "POSUI": "SK-SBQ", "Site_Name": "Beauval", "Site_Type": "Scheduled Outreach", "Building": "Northern Village of Beauval", "Address": "Lavoie Street", "City": "Beauval", "Province": "Saskatchewan", "Longitude": -107.61223, "Latitude": 55.147129 }, "geometry": { "type": "Point", "coordinates": [ -107.61223, 55.147129, 0.0 ] } },
{ "type": "Feature", "properties": { "OBJECTID": 223, "POSUI": "SK-SBS", "Site_Name": "La Loche", "Site_Type": "Scheduled Outreach", "Building": "La Loche Recreation Centre", "Address": "Montgrand Street", "City": "La Loche", "Province": "Saskatchewan", "Longitude": -109.43499, "Latitude": 56.484366 }, "geometry": { "type": "Point", "coordinates": [ -109.43499, 56.484366, 0.0 ] } },
{ "type": "Feature", "properties": { "OBJECTID": 224, "POSUI": "SK-SBT", "Site_Name": "Moosomin", "Site_Type": "Scheduled Outreach", "Building": "", "Address": "712 Main Street", "City": "Moosomin", "Province": "Saskatchewan", "Longitude": -101.667604, "Latitude": 50.143882 }, "geometry": { "type": "Point", "coordinates": [ -101.667604, 50.143882, 0.0 ] } },
{ "type": "Feature", "properties": { "OBJECTID": 225, "POSUI": "SK-SBU", "Site_Name": "Esterhazy", "Site_Type": "Scheduled Outreach", "Building": " ", "Address": "600 Sumner Street", "City": "Esterhazy", "Province": "Saskatchewan", "Longitude": -102.076316, "Latitude": 50.657089 }, "geometry": { "type": "Point", "coordinates": [ -102.076316, 50.657089, 0.0 ] } },
{ "type": "Feature", "properties": { "OBJECTID": 226, "POSUI": "SK-SBY", "Site_Name": "Lanigan", "Site_Type": "Scheduled Outreach", "Building": " ", "Address": "110 Main Street", "City": "Lanigan", "Province": "Saskatchewan", "Longitude": -105.031764, "Latitude": 51.851222 }, "geometry": { "type": "Point", "coordinates": [ -105.031764, 51.851222, 0.0 ] } },
{ "type": "Feature", "properties": { "OBJECTID": 227, "POSUI": "YK-SAA", "Site_Name": "Old Crow", "Site_Type": "Scheduled Outreach", "Building": "Government Building", "Address": "Vuntut Gwitchin First Nations", "City": "Old Crow", "Province": "Yukon", "Longitude": -139.828784, "Latitude": 67.569634 }, "geometry": { "type": "Point", "coordinates": [ -139.828784, 67.569634, 0.0 ] } },
{ "type": "Feature", "properties": { "OBJECTID": 228, "POSUI": "YK-SAB", "Site_Name": "Haines Junction", "Site_Type": "Scheduled Outreach", "Building": "St Elias Convention Centre", "Address": "178 Backe Street", "City": "Haines Junction", "Province": "Yukon", "Longitude": -137.508557, "Latitude": 60.754795 }, "geometry": { "type": "Point", "coordinates": [ -137.508557, 60.754795, 0.0 ] } },
{ "type": "Feature", "properties": { "OBJECTID": 229, "POSUI": "YK-SAC", "Site_Name": "Faro", "Site_Type": "Scheduled Outreach", "Building": "Town Administration Office", "Address": "200 Campbell Street", "City": "Faro", "Province": "Yukon", "Longitude": -133.354182, "Latitude": 62.230029 }, "geometry": { "type": "Point", "coordinates": [ -133.354182, 62.230029, 0.0 ] } },
{ "type": "Feature", "properties": { "OBJECTID": 230, "POSUI": "YK-SAE", "Site_Name": "Watson Lake", "Site_Type": "Scheduled Outreach", "Building": "Yukon College Campus", "Address": "Robert Campbell Highway", "City": "Watson Lake", "Province": "Yukon", "Longitude": -128.71683, "Latitude": 60.06606 }, "geometry": { "type": "Point", "coordinates": [ -128.71683, 60.06606, 0.0 ] } },
{ "type": "Feature", "properties": { "OBJECTID": 231, "POSUI": "SK-SBV", "Site_Name": "Pelican Narrows", "Site_Type": "Scheduled Outreach", "Building": "Pelican Narrows Band Office", "Address": "Bear Street", "City": "Pelican Narrows", "Province": "Saskatchewan", "Longitude": -102.939469, "Latitude": 55.170541090000029 }, "geometry": { "type": "Point", "coordinates": [ -102.939469, 55.170541090000029, 0.0 ] } },
{ "type": "Feature", "properties": { "OBJECTID": 232, "POSUI": "SK-SBW", "Site_Name": "Sandy Bay", "Site_Type": "Scheduled Outreach", "Building": "Community Resource Centre", "Address": "Church Street", "City": "Sandy Bay", "Province": "Saskatchewan", "Longitude": -102.314912, "Latitude": 55.525606320000065 }, "geometry": { "type": "Point", "coordinates": [ -102.314912, 55.525606320000065, 0.0 ] } },
{ "type": "Feature", "properties": { "OBJECTID": 238, "POSUI": "SK-SBX", "Site_Name": "Stanley Mission", "Site_Type": "Scheduled Outreach", "Building": "Stanley Mission Band Office", "Address": "1011 Stette Street", "City": "Stanley Mission", "Province": "Saskatchewan", "Longitude": -104.564824, "Latitude": 55.418 }, "geometry": { "type": "Point", "coordinates": [ -104.564824, 55.418, 0.0 ] } },
{ "type": "Feature", "properties": { "OBJECTID": 244, "POSUI": "SK-SCB", "Site_Name": "Kamsack", "Site_Type": "Scheduled Outreach", "Address": "241 2nd Street", "City": "Kamsack", "Province": "Saskatchewan", "Longitude": -101.897061, "Latitude": 51.561 }, "geometry": { "type": "Point", "coordinates": [ -101.897061, 51.561, 0.0 ] } },
{ "type": "Feature", "properties": { "OBJECTID": 245, "POSUI": "SK-SCA", "Site_Name": "Fort Qu'Appelle", "Site_Type": "Scheduled Outreach", "Address": "148 Company Avenue South", "City": "Fort Qu'Appelle", "Province": "Saskatchewan", "Longitude": -103.796569, "Latitude": 50.768658250000044 }, "geometry": { "type": "Point", "coordinates": [ -103.796569, 50.768658250000044, 0.0 ] } },
{ "type": "Feature", "properties": { "OBJECTID": 246, "POSUI": "AB-SAN", "Site_Name": "Cold Lake", "Site_Type": "Scheduled Outreach", "Building": "Alberta Works Centre - 408 Tri City Mall", "Address": "6501B - 51st Street", "City": "Cold Lake", "Province": "Alberta", "Longitude": -110.205928, "Latitude": 54.431419540000036 }, "geometry": { "type": "Point", "coordinates": [ -110.205928, 54.431419540000036, 0.0 ] } },
{ "type": "Feature", "properties": { "OBJECTID": 247, "POSUI": "1675", "Site_Name": "Perth-Andover", "Site_Type": "Scheduled Outreach", "Address": "111 Fort Road", "City": "Perth-Andover", "Province": "New Brunswick", "Longitude": -67.7098613, "Latitude": 46.749364830000047 }, "geometry": { "type": "Point", "coordinates": [ -67.709861299999943, 46.749364830000047, 0.0 ] } },
{ "type": "Feature", "properties": { "OBJECTID": 248, "POSUI": "AB-SAL", "Site_Name": "Jasper", "Site_Type": "Scheduled Outreach", "Building": "Château Jasper, Geikie Boardroom", "Address": "96 Geikie Street", "City": "Jasper", "Province": "Alberta", "Longitude": -118.08085133499998, "Latitude": 52.885848595000027, "Last_Update": "2017\/08\/14 00:00:00" }, "geometry": { "type": "Point", "coordinates": [ -118.080851334999977, 52.885848595000027, 0.0 ] } },
{ "type": "Feature", "properties": { "OBJECTID": 249, "POSUI": "AB-SAM", "Site_Name": "Grande Cache", "Site_Type": "Scheduled Outreach", "Building": "Grande Cache Alberta Works Centre", "Address": "10001 Hoppe Avenue", "City": "Grande Cache", "Province": "Alberta", "Longitude": -119.118632, "Latitude": 53.887487 }, "geometry": { "type": "Point", "coordinates": [ -119.118632, 53.887487, 0.0 ] } },
{ "type": "Feature", "properties": { "OBJECTID": 251, "POSUI": "SK-SCD", "Site_Name": "Rosthern", "Site_Type": "Scheduled Outreach", "Building": "Neumar Management Ltd.", "Address": "716 Railway Avenue", "City": "Rosthern", "Province": "Saskatchewan", "Longitude": -106.332539, "Latitude": 52.661802 }, "geometry": { "type": "Point", "coordinates": [ -106.332539, 52.661801790000027, 0.0 ] } },
{ "type": "Feature", "properties": { "OBJECTID": 252, "POSUI": "QC-SDC", "Site_Name": "Waskaganish", "Site_Type": "Scheduled Outreach", "Building": "CHRD Building", "Address": "18 Nottaway Street", "City": "Waskaganish", "Province": "Quebec", "Longitude": -78.753438, "Latitude": 51.486136, "Last_Update": "2016\/07\/14 00:00:00" }, "geometry": { "type": "Point", "coordinates": [ -78.753438499999959, 51.486136590000058, 0.0 ] } },
{ "type": "Feature", "properties": { "OBJECTID": 254, "POSUI": "MB-SBL", "Site_Name": "Churchill", "Site_Type": "Scheduled Outreach", "Building": " ", "Address": "1 Mantayo Seepee Meskanow", "City": "Churchill", "Province": "Manitoba", "Longitude": -94.174594, "Latitude": 58.76784 }, "geometry": { "type": "Point", "coordinates": [ -94.174594, 58.76784, 0.0 ] } }
]
}
